Severity,Start_Lat,Start_Lng,End_Lat,End_Lng,Distance(mi),Street,City,County,State,Zipcode,Country,Timezone,Airport_Code,Weather_Timestamp,Temperature(F),Wind_Chill(F),Humidity(%),Pressure(in),Visibility(mi),Wind_Direction,Wind_Speed(mph),Precipitation(in),Weather_Condition,Amenity,Bump,Crossing,Give_Way,Junction,No_Exit,Railway,Roundabout,Station,Stop,Traffic_Calming,Traffic_Signal,Turning_Loop,Sunrise_Sunset,Civil_Twilight,Nautical_Twilight,Astronomical_Twilight,Start_Year,Start_Month,Start_Day,Start_Hour,Start_Minute,Start_Second,End_Year,End_Month,End_Day,End_Hour,End_Minute,End_Second
2,39.865147,-84.058723,,,0.01,I-70 E,Dayton,Montgomery,OH,45424,US,US/Eastern,KFFO,2016-02-08 05:58:00,36.9,23.36869565217391,91.0,29.68,10.0,Calm,9.396476547016075,0.02,Light Rain,False,False,False,False,False,False,False,False,False,False,False,False,False,Night,Night,Night,Night,2016,2,8,5,46,0,2016,2,8,11,0,0
1,39.92805900000001,-82.831184,,,0.01,Brice Rd,Reynoldsburg,Franklin,OH,43068-3402,US,US/Eastern,KCMH,2016-02-08 05:51:00,37.9,23.36869565217391,100.0,29.65,10.0,Calm,9.396476547016075,0.0,Light Rain,False,False,False,False,False,False,False,False,False,False,False,False,False,Night,Night,Night,Day,2016,2,8,6,7,59,2016,2,8,6,37,59
1,39.063148,-84.032608,,,0.01,State Route 32,Williamsburg,Clermont,OH,45176,US,US/Eastern,KI69,2016-02-08 06:56:00,36.0,33.3,100.0,29.67,10.0,SW,3.5,0.021145833333333332,Overcast,False,False,False,False,False,False,False,False,False,False,False,True,False,Night,Night,Day,Day,2016,2,8,6,49,27,2016,2,8,7,19,27
2,39.747753,-84.20558199999998,,,0.01,I-75 S,Dayton,Montgomery,OH,45417,US,US/Eastern,KDAY,2016-02-08 07:38:00,35.1,31.0,96.0,29.64,9.0,SW,4.6,0.021145833333333332,Mostly Cloudy,False,False,False,False,False,False,False,False,False,False,False,False,False,Night,Day,Day,Day,2016,2,8,7,23,34,2016,2,8,7,53,34
1,39.627781,-84.188354,,,0.01,Miamisburg Centerville Rd,Dayton,Montgomery,OH,45459,US,US/Eastern,KMGY,2016-02-08 07:53:00,36.0,33.3,89.0,29.65,6.0,SW,3.5,0.021145833333333332,Mostly Cloudy,False,False,False,False,False,False,False,False,False,False,False,True,False,Day,Day,Day,Day,2016,2,8,7,39,7,2016,2,8,8,9,7
2,40.10059,-82.92519399999998,,,0.01,Westerville Rd,Westerville,Franklin,OH,43081,US,US/Eastern,KCMH,2016-02-08 07:51:00,37.9,35.5,97.0,29.63,7.0,SSW,3.5,0.021145833333333332,Light Rain,False,False,False,False,False,False,False,False,False,False,False,False,False,Day,Day,Day,Day,2016,2,8,7,44,26,2016,2,8,8,14,26
1,39.758274,-84.23050699999997,,,0.0,N Woodward Ave,Dayton,Montgomery,OH,45417-2476,US,US/Eastern,KDAY,2016-02-08 07:56:00,34.0,31.0,100.0,29.66,7.0,WSW,3.5,0.021145833333333332,Overcast,False,False,False,False,False,False,False,False,False,False,False,False,False,Day,Day,Day,Day,2016,2,8,7,59,35,2016,2,8,8,29,35
2,39.770382,-84.194901,,,0.01,N Main St,Dayton,Montgomery,OH,45405,US,US/Eastern,KDAY,2016-02-08 07:56:00,34.0,31.0,100.0,29.66,7.0,WSW,3.5,0.021145833333333332,Overcast,False,False,False,False,False,False,False,False,False,False,False,False,False,Day,Day,Day,Day,2016,2,8,7,59,58,2016,2,8,8,29,58
1,39.778061,-84.172005,,,0.0,Notre Dame Ave,Dayton,Montgomery,OH,45404-1923,US,US/Eastern,KFFO,2016-02-08 07:58:00,33.3,23.36869565217391,99.0,29.67,5.0,SW,1.2,0.021145833333333332,Mostly Cloudy,False,False,False,False,False,False,False,False,False,False,False,False,False,Day,Day,Day,Day,2016,2,8,8,0,40,2016,2,8,8,30,40
2,40.10059,-82.92519399999998,,,0.01,Westerville Rd,Westerville,Franklin,OH,43081,US,US/Eastern,KCMH,2016-02-08 08:28:00,37.4,33.8,100.0,29.62,3.0,SSW,4.6,0.02,Light Rain,False,False,False,False,False,False,False,False,False,False,False,False,False,Day,Day,Day,Day,2016,2,8,8,10,4,2016,2,8,8,40,4
2,39.952812,-83.119293,,,0.01,Outerbelt S,Columbus,Franklin,OH,43228,US,US/Eastern,KTZR,2016-02-08 07:50:00,35.6,30.7,93.0,29.64,5.0,WNW,5.8,0.021145833333333332,Rain,False,False,True,False,True,False,False,False,False,False,False,False,False,Day,Day,Day,Day,2016,2,8,8,14,42,2016,2,8,8,44,42
2,39.932709,-82.83091,,,0.01,I-70 E,Reynoldsburg,Franklin,OH,43068,US,US/Eastern,KCMH,2016-02-08 08:28:00,37.4,33.8,100.0,29.62,3.0,SSW,4.6,0.02,Light Rain,False,False,False,False,False,False,False,False,False,False,False,False,False,Day,Day,Day,Day,2016,2,8,8,21,27,2016,2,8,8,51,27
1,39.737633,-84.14993299999998,,,0.0,Watervliet Ave,Dayton,Montgomery,OH,45420-1863,US,US/Eastern,KFFO,2016-02-08 08:28:00,33.8,23.36869565217391,100.0,29.63,3.0,SW,2.3,0.021145833333333332,Overcast,False,False,False,False,False,False,False,False,False,False,False,False,False,Day,Day,Day,Day,2016,2,8,8,36,34,2016,2,8,9,6,34
1,39.79076,-84.241547,,,0.01,Salem Ave,Dayton,Montgomery,OH,45406-2708,US,US/Eastern,KDAY,2016-02-08 08:56:00,36.0,31.1,89.0,29.65,10.0,NW,5.8,0.021145833333333332,Mostly Cloudy,False,False,False,False,False,False,False,False,False,False,False,True,False,Day,Day,Day,Day,2016,2,8,8,37,7,2016,2,8,9,7,7
1,39.972038,-82.913521,,,0.01,E Broad St,Columbus,Franklin,OH,43213-1006,US,US/Eastern,KCMH,2016-02-08 08:28:00,37.4,33.8,100.0,29.62,3.0,SSW,4.6,0.02,Light Rain,False,False,False,False,False,False,False,False,False,False,False,True,False,Day,Day,Day,Day,2016,2,8,8,39,43,2016,2,8,9,9,43
1,39.745888,-84.17041,,,0.01,Glencoe Ave,Dayton,Montgomery,OH,45410-1721,US,US/Eastern,KFFO,2016-02-08 08:28:00,33.8,23.36869565217391,100.0,29.63,3.0,SW,2.3,0.021145833333333332,Overcast,False,False,False,False,False,False,False,False,False,False,False,False,False,Day,Day,Day,Day,2016,2,8,8,43,20,2016,2,8,9,13,20
1,39.748329,-84.224007,,,0.01,S James H McGee Blvd,Dayton,Montgomery,OH,45402,US,US/Eastern,KFFO,2016-02-08 08:58:00,35.6,23.36869565217391,99.0,29.65,7.0,WSW,2.3,0.021145833333333332,Mostly Cloudy,False,False,False,False,False,False,False,False,False,False,False,False,False,Day,Day,Day,Day,2016,2,8,8,53,17,2016,2,8,9,23,17
1,39.752174,-84.239952,,,0.0,Delphos Ave,Dayton,Montgomery,OH,45417-1727,US,US/Eastern,KDAY,2016-02-08 08:56:00,36.0,31.1,89.0,29.65,10.0,NW,5.8,0.021145833333333332,Mostly Cloudy,False,False,False,False,False,False,False,False,False,False,False,False,False,Day,Day,Day,Day,2016,2,8,9,24,37,2016,2,8,9,54,37
1,39.740669,-84.184135,,,0.01,Rubicon St,Dayton,Montgomery,OH,45409-2659,US,US/Eastern,KFFO,2016-02-08 09:38:00,37.4,32.1,93.0,29.63,10.0,WSW,6.9,0.021145833333333332,Overcast,False,False,True,False,False,False,False,False,False,False,False,True,False,Day,Day,Day,Day,2016,2,8,9,25,17,2016,2,8,9,55,17
1,39.790703,-84.244461,,,0.01,W Hillcrest Ave,Dayton,Montgomery,OH,45406-2640,US,US/Eastern,KDAY,2016-02-08 09:56:00,36.0,30.3,89.0,29.65,10.0,West,6.9,0.021145833333333332,Mostly Cloudy,False,False,False,False,False,False,False,False,False,False,False,False,False,Day,Day,Day,Day,2016,2,8,9,35,35,2016,2,8,10,5,35
1,40.052509,-82.88233199999998,,,0.0,Brookhill Dr,Columbus,Franklin,OH,43230-1765,US,US/Eastern,KCMH,2016-02-08 10:14:00,33.8,29.6,100.0,29.62,2.0,NNW,4.6,0.01,Light Snow,False,False,False,False,False,False,False,False,False,False,False,False,False,Day,Day,Day,Day,2016,2,8,10,11,15,2016,2,8,10,41,15
1,39.773346,-84.224686,,,0.0,Princeton Dr,Dayton,Montgomery,OH,45406-4736,US,US/Eastern,KDAY,2016-02-08 09:56:00,36.0,30.3,89.0,29.65,10.0,West,6.9,0.021145833333333332,Mostly Cloudy,False,False,False,False,False,False,False,False,False,False,False,False,False,Day,Day,Day,Day,2016,2,8,10,24,27,2016,2,8,10,54,27
1,39.628288,-84.226151,,,0.01,Springboro Pike,Miamisburg,Montgomery,OH,45342,US,US/Eastern,KMGY,2016-02-08 11:53:00,35.1,28.6,89.0,29.65,6.0,WSW,8.1,0.02,Overcast,False,False,False,False,False,False,False,False,False,False,False,True,False,Day,Day,Day,Day,2016,2,8,11,53,19,2016,2,8,12,23,19
2,40.023487,-82.994888,,,0.01,North Fwy S,Columbus,Franklin,OH,43211,US,US/Eastern,KCMH,2016-02-08 11:51:00,37.0,32.4,96.0,29.63,8.0,West,5.8,0.0,Overcast,False,False,False,False,False,False,False,False,False,False,False,False,False,Day,Day,Day,Day,2016,2,8,12,0,0,2016,2,8,12,45,0
1,39.761379,-84.25921600000002,,,0.01,Hoover Ave,Dayton,Montgomery,OH,45417-1117,US,US/Eastern,KDAY,2016-02-08 12:20:00,37.9,30.9,76.0,29.62,10.0,WNW,10.4,0.021145833333333332,Overcast,False,False,False,False,False,False,False,False,False,False,False,True,False,Day,Day,Day,Day,2016,2,8,12,16,44,2016,2,8,13,1,44
1,40.158024,-82.641762,,,1.32,Sportsman Club Rd,Johnstown,Licking,OH,43031-9133,US,US/Eastern,KCMH,2016-02-08 12:51:00,37.9,34.4,100.0,29.6,5.0,West,4.6,0.01,Light Snow,False,False,False,False,False,False,False,False,False,False,False,False,False,Day,Day,Day,Day,2016,2,8,12,41,8,2016,2,8,13,11,8
1,39.733219,-84.159653,,,0.0,Irving Ave,Dayton,Montgomery,OH,45419-4148,US,US/Eastern,KMGY,2016-02-08 12:53:00,36.0,29.0,86.0,29.63,7.0,West,9.2,0.0,Light Snow,False,False,False,False,False,False,False,False,False,False,False,True,False,Day,Day,Day,Day,2016,2,8,12,52,5,2016,2,8,13,37,5
1,39.775303,-84.200523,,,0.0,W Helena St,Dayton,Montgomery,OH,45405-4326,US,US/Eastern,KDAY,2016-02-08 13:56:00,39.9,32.9,70.0,29.61,10.0,WNW,11.5,0.0,Mostly Cloudy,False,False,False,False,False,False,False,False,False,False,False,True,False,Day,Day,Day,Day,2016,2,8,14,24,48,2016,2,8,15,9,48
1,39.789322,-84.23910500000002,,,0.01,Litchfield Ave,Dayton,Montgomery,OH,45406-2701,US,US/Eastern,KDAY,2016-02-08 14:56:00,39.9,34.5,65.0,29.61,10.0,WNW,8.1,0.021145833333333332,Mostly Cloudy,False,False,False,False,False,False,False,False,False,False,False,False,False,Day,Day,Day,Day,2016,2,8,14,56,57,2016,2,8,15,41,57
1,39.75872,-84.183762,,,0.0,E 4th St,Dayton,Montgomery,OH,45402,US,US/Eastern,KFFO,2016-02-08 15:46:00,39.2,35.9,75.0,29.62,10.0,NNE,4.6,0.021145833333333332,Mostly Cloudy,False,False,False,False,False,False,False,False,False,False,False,False,False,Day,Day,Day,Day,2016,2,8,15,26,14,2016,2,8,16,11,14
1,40.081459,-83.122398,,,0.01,Frantz Rd,Dublin,Franklin,OH,43017-2552,US,US/Eastern,KOSU,2016-02-08 15:53:00,37.0,31.6,89.0,29.61,10.0,West,6.9,0.0,Overcast,False,False,False,False,False,False,False,False,False,False,False,True,False,Day,Day,Day,Day,2016,2,8,16,16,8,2016,2,8,16,46,8
1,39.83321,-84.112946,,,0.0,Bellefontaine Rd,Dayton,Montgomery,OH,45424-4132,US,US/Eastern,KFFO,2016-02-08 17:58:00,34.2,31.2,97.0,29.66,10.0,NW,3.5,0.02,Light Rain,False,False,False,False,False,False,False,False,False,False,False,False,False,Day,Day,Day,Day,2016,2,8,17,39,24,2016,2,8,18,24,24
2,40.042725,-82.99730699999998,,,0.01,North Fwy S,Columbus,Franklin,OH,43224,US,US/Eastern,KCMH,2016-02-08 18:43:00,33.8,28.6,100.0,29.62,6.0,South,5.8,0.021145833333333332,Overcast,False,False,False,False,False,False,False,False,False,False,False,False,False,Night,Day,Day,Day,2016,2,8,18,24,0,2016,2,8,21,0,0
2,39.974415,-82.848854,,,0.01,Outerbelt N,Columbus,Franklin,OH,43213,US,US/Eastern,KCMH,2016-02-08 19:51:00,34.0,23.36869565217391,100.0,29.65,6.0,Calm,9.396476547016075,0.021145833333333332,Overcast,False,False,False,False,False,False,False,False,False,False,False,False,False,Night,Night,Night,Day,2016,2,8,19,28,0,2016,2,8,21,0,0
1,39.994766,-83.02449,,,0.01,Olentangy Fwy N,Columbus,Franklin,OH,43212,US,US/Eastern,KOSU,2016-02-08 20:27:00,33.1,26.1,92.0,29.63,7.0,WNW,8.1,0.0,Light Snow,False,False,False,False,False,False,False,False,False,False,False,False,False,Night,Night,Night,Night,2016,2,8,20,22,38,2016,2,8,21,7,38
1,40.006477,-83.030991,,,1.09,Olentangy Fwy S,Columbus,Franklin,OH,43210,US,US/Eastern,KOSU,2016-02-08 20:39:00,33.1,25.5,92.0,29.63,9.0,WNW,9.2,0.0,Overcast,False,False,False,False,False,False,False,False,False,False,False,True,False,Night,Night,Night,Night,2016,2,8,20,43,0,2016,2,8,23,0,0
1,39.742062,-84.186996,,,0.01,S Main St,Dayton,Montgomery,OH,45409-2616,US,US/Eastern,KFFO,2016-02-09 04:28:00,32.0,11.7,93.0,29.65,5.0,SW,11.5,0.021145833333333332,Light Snow,False,False,False,False,False,False,False,False,False,False,False,False,False,Night,Night,Night,Night,2016,2,9,4,28,48,2016,2,9,4,58,48
1,39.843521,-82.78157,,,0.01,Diley Rd,Canal Winchester,Fairfield,OH,43110,US,US/Eastern,KLCK,2016-02-09 04:55:00,32.0,11.7,93.0,29.63,2.5,WSW,11.5,0.021145833333333332,Light Snow,False,False,False,False,True,False,False,False,False,False,False,True,False,Night,Night,Night,Night,2016,2,9,5,4,34,2016,2,9,5,34,34
1,39.782578,-84.178688,,,0.01,Kiser St,Dayton,Montgomery,OH,45404-1672,US,US/Eastern,KFFO,2016-02-09 04:58:00,32.0,11.5,89.0,29.69,4.0,SW,11.5,0.0,Light Snow,False,False,False,False,False,False,False,False,False,False,False,False,False,Night,Night,Night,Night,2016,2,9,5,17,8,2016,2,9,5,47,8
2,40.007626,-82.912155,,,0.01,Stelzer Rd,Columbus,Franklin,OH,43219-3504,US,US/Eastern,KCMH,2016-02-09 05:27:00,32.0,18.2,86.0,29.62,1.5,West,8.1,0.01,Light Snow,False,False,False,False,False,False,False,False,False,False,False,False,False,Night,Night,Night,Night,2016,2,9,5,27,20,2016,2,9,5,57,20
1,39.447502,-84.19120799999997,,,0.0,Monroe Rd,Lebanon,Warren,OH,45036,US,US/Eastern,KMGY,2016-02-09 05:45:00,32.0,10.6,85.0,29.67,0.8,SW,9.2,0.01,Light Snow,False,False,True,False,False,False,False,False,False,False,False,False,False,Night,Night,Night,Night,2016,2,9,5,40,57,2016,2,9,6,10,57
1,39.787731,-84.173439,,,0.01,Air City Ave,Dayton,Montgomery,OH,45404-1255,US,US/Eastern,KFFO,2016-02-09 05:58:00,32.0,12.4,86.0,29.71,3.0,SW,10.4,0.0,Light Snow,False,False,True,False,False,False,False,False,False,False,False,True,False,Night,Night,Night,Night,2016,2,9,5,47,16,2016,2,9,6,17,16
1,39.426277,-83.624611,,,0.01,S State Route 72,Sabina,Clinton,OH,45169,US,US/Eastern,KILN,2016-02-09 05:54:00,32.0,6.7,89.0,29.75,1.8,WSW,13.8,0.0,Light Snow,False,False,False,False,False,False,False,False,False,False,False,False,False,Night,Night,Night,Night,2016,2,9,5,56,10,2016,2,9,6,26,10
2,39.978306,-82.852554,,,0.01,E Broad St,Columbus,Franklin,OH,43213,US,US/Eastern,KCMH,2016-02-09 05:51:00,32.0,15.5,88.0,29.65,1.0,SW,9.2,0.02,Light Snow,False,False,False,False,True,False,False,False,False,False,False,False,False,Night,Night,Night,Day,2016,2,9,6,6,45,2016,2,9,6,36,45
2,39.84182,-84.18960600000003,,,0.01,Benchwood Rd,Dayton,Montgomery,OH,45414,US,US/Eastern,KDAY,2016-02-09 06:03:00,32.0,10.1,88.0,29.66,2.0,West,15.0,0.0,Light Snow,False,False,False,False,False,False,False,False,False,False,False,True,False,Night,Night,Night,Day,2016,2,9,6,13,33,2016,2,9,6,43,33
2,39.953625,-82.958954,,,0.01,East Fwy W,Columbus,Franklin,OH,43205,US,US/Eastern,KCMH,2016-02-09 05:51:00,32.0,15.5,88.0,29.65,1.0,SW,9.2,0.02,Light Snow,False,False,False,False,False,False,False,False,False,False,False,False,False,Night,Night,Night,Day,2016,2,9,6,12,49,2016,2,9,6,42,49
1,40.053082,-83.049644,,,0.01,Kenny Rd,Columbus,Franklin,OH,43220,US,US/Eastern,KOSU,2016-02-09 06:22:00,32.0,15.0,84.0,29.63,2.0,West,12.7,0.0,Light Snow,False,False,False,False,False,False,False,False,False,False,False,True,False,Night,Night,Night,Day,2016,2,9,6,21,50,2016,2,9,6,51,50
2,39.936874,-82.878723,,,0.01,S Hamilton Rd,Columbus,Franklin,OH,43232,US,US/Eastern,KCMH,2016-02-09 06:36:00,32.0,16.1,86.0,29.64,1.0,SW,8.1,0.01,Light Snow,False,False,False,False,False,False,False,False,False,False,False,False,False,Night,Night,Night,Day,2016,2,9,6,20,46,2016,2,9,6,50,46
1,39.780643,-84.16349,,,0.01,Brandt St,Dayton,Montgomery,OH,45404,US,US/Eastern,KFFO,2016-02-09 06:51:00,32.0,11.7,86.0,29.68,4.0,SW,11.5,0.021145833333333332,Light Snow,False,False,False,False,False,False,False,False,False,False,False,True,False,Night,Night,Night,Day,2016,2,9,6,34,41,2016,2,9,7,4,41
2,39.773193,-84.187454,,,0.01,I-75 S,Dayton,Montgomery,OH,45404,US,US/Eastern,KFFO,2016-02-09 06:51:00,32.0,11.7,86.0,29.68,4.0,SW,11.5,0.021145833333333332,Light Snow,False,False,False,False,False,False,False,False,False,False,False,False,False,Night,Night,Day,Day,2016,2,9,6,41,9,2016,2,9,7,11,9
1,39.77858,-84.20468100000002,,,0.01,N Main St,Dayton,Montgomery,OH,45405-4141,US,US/Eastern,KDAY,2016-02-09 06:56:00,32.0,9.8,92.0,29.71,2.0,WSW,12.7,0.01,Light Snow,False,False,False,False,False,False,False,False,False,False,False,False,False,Night,Night,Day,Day,2016,2,9,6,48,18,2016,2,9,7,18,18
1,39.792988,-84.20607,,,0.01,Riverside Dr,Dayton,Montgomery,OH,45405,US,US/Eastern,KDAY,2016-02-09 06:56:00,32.0,9.8,92.0,29.71,2.0,WSW,12.7,0.01,Light Snow,False,False,False,False,False,False,False,False,False,False,False,False,False,Night,Night,Day,Day,2016,2,9,6,53,9,2016,2,9,7,23,9
2,39.770382,-84.194901,,,0.01,N Main St,Dayton,Montgomery,OH,45405,US,US/Eastern,KDAY,2016-02-09 06:56:00,32.0,9.8,92.0,29.71,2.0,WSW,12.7,0.01,Light Snow,False,False,False,False,False,False,False,False,False,False,False,False,False,Night,Night,Day,Day,2016,2,9,6,54,31,2016,2,9,7,24,31
2,39.976398,-83.119225,,,0.01,Outerbelt S,Columbus,Franklin,OH,43204,US,US/Eastern,KTZR,2016-02-09 07:20:00,32.0,8.3,93.0,29.66,1.5,WSW,13.8,0.021145833333333332,Light Snow,False,False,False,False,False,False,False,False,False,False,False,False,False,Night,Day,Day,Day,2016,2,9,7,3,20,2016,2,9,7,33,20
2,39.6395,-84.23136099999998,,,0.01,Miamisburg Centerville Rd,Dayton,Montgomery,OH,45449,US,US/Eastern,KMGY,2016-02-09 07:12:00,32.0,10.6,85.0,29.69,1.2,WSW,9.2,0.0,Light Snow,False,False,False,False,False,False,False,False,False,False,False,False,False,Night,Night,Day,Day,2016,2,9,7,5,37,2016,2,9,7,35,37
1,39.232578,-84.159286,,,0.01,Wood St,Goshen,Clermont,OH,45122,US,US/Eastern,KI69,2016-02-09 06:56:00,32.0,10.6,93.0,29.73,2.5,WSW,9.2,0.021145833333333332,Light Snow,False,False,False,False,False,False,False,False,False,True,False,False,False,Night,Night,Day,Day,2016,2,9,7,4,58,2016,2,9,7,34,58
1,39.746593,-84.23912,,,0.01,Dearborn Ave,Dayton,Montgomery,OH,45417-2002,US,US/Eastern,KDAY,2016-02-09 07:08:00,32.0,9.8,92.0,29.68,2.0,WSW,12.7,0.0,Light Snow,False,False,False,False,False,False,False,False,False,False,False,True,False,Night,Day,Day,Day,2016,2,9,7,15,41,2016,2,9,7,45,41
1,39.742783,-84.182472,,,0.01,Brown St,Dayton,Montgomery,OH,45409-2602,US,US/Eastern,KFFO,2016-02-09 07:58:00,32.0,12.4,90.0,29.73,1.2,SW,9.2,0.0,Light Snow,True,False,False,False,False,False,False,False,False,False,False,False,False,Day,Day,Day,Day,2016,2,9,7,41,1,2016,2,9,8,11,1
1,39.75452,-84.159279,,,0.01,US-35 E,Dayton,Montgomery,OH,45410,US,US/Eastern,KFFO,2016-02-09 07:58:00,32.0,12.4,90.0,29.73,1.2,SW,9.2,0.0,Light Snow,False,False,False,False,False,False,False,False,False,False,False,False,False,Day,Day,Day,Day,2016,2,9,7,42,43,2016,2,9,8,12,43
1,39.749916,-84.139359,,,0.01,US-35 E,Dayton,Montgomery,OH,45410,US,US/Eastern,KFFO,2016-02-09 07:58:00,32.0,12.4,90.0,29.73,1.2,SW,9.2,0.0,Light Snow,False,False,False,False,False,False,False,False,False,False,False,False,False,Day,Day,Day,Day,2016,2,9,7,42,11,2016,2,9,8,12,11
2,40.100903,-82.98410799999998,,,0.01,North Fwy S,Columbus,Franklin,OH,43229,US,US/Eastern,KOSU,2016-02-09 07:50:00,32.0,16.1,86.0,29.65,1.8,West,8.1,0.0,Light Snow,False,False,False,False,False,False,False,False,False,False,False,False,False,Day,Day,Day,Day,2016,2,9,7,46,41,2016,2,9,8,16,41
1,39.77280800000001,-84.201851,,,0.0,5 Oaks Ave,Dayton,Montgomery,OH,45405-4432,US,US/Eastern,KDAY,2016-02-09 07:54:00,32.0,8.9,93.0,29.69,2.0,West,12.7,0.0,Light Snow,False,False,False,False,False,False,False,False,False,False,False,False,False,Day,Day,Day,Day,2016,2,9,7,54,44,2016,2,9,8,24,44
1,39.492485,-84.131798,,,0.01,N State Route 42,Waynesville,Warren,OH,45068-9388,US,US/Eastern,KMGY,2016-02-09 08:14:00,32.0,10.6,81.0,29.7,1.2,WSW,9.2,0.0,Light Snow,False,False,False,False,False,False,False,False,False,False,False,False,False,Day,Day,Day,Day,2016,2,9,8,6,39,2016,2,9,8,36,39
1,39.570904,-84.251724,,,0.01,Clearcreek Rd,Springboro,Warren,OH,45066-9716,US,US/Eastern,KMGY,2016-02-09 08:14:00,32.0,10.6,81.0,29.7,1.2,WSW,9.2,0.0,Light Snow,False,False,False,False,False,False,False,False,False,False,False,False,False,Day,Day,Day,Day,2016,2,9,8,12,44,2016,2,9,8,42,44
1,39.834282,-82.74382,,,0.0,Columbus Lancaster Rd NW,Carroll,Fairfield,OH,43112,US,US/Eastern,KLHQ,2016-02-09 07:50:00,32.0,10.4,85.0,29.7,0.8,SW,11.5,0.0,Light Snow,False,False,False,False,False,False,False,False,False,False,False,False,False,Day,Day,Day,Day,2016,2,9,8,10,20,2016,2,9,8,40,20
2,39.622787,-84.229858,,,0.01,I-75 N,Miamisburg,Montgomery,OH,45342,US,US/Eastern,KMGY,2016-02-09 08:14:00,32.0,10.6,81.0,29.7,1.2,WSW,9.2,0.0,Light Snow,False,False,False,False,False,False,False,False,False,False,False,False,False,Day,Day,Day,Day,2016,2,9,8,23,36,2016,2,9,8,53,36
2,39.429871,-84.079666,,,0.01,Wilmington Rd,Oregonia,Warren,OH,45054,US,US/Eastern,KMGY,2016-02-09 08:14:00,32.0,10.6,81.0,29.7,1.2,WSW,9.2,0.0,Light Snow,False,False,False,False,False,False,False,False,False,False,False,False,False,Day,Day,Day,Day,2016,2,9,8,24,29,2016,2,9,8,54,29
2,41.407391,-81.64676700000003,,,0.01,Outerbelt South Fwy W,Independence,Cuyahoga,OH,44131,US,US/Eastern,KBKL,2016-02-09 08:28:00,32.0,22.5,82.0,29.58,10.0,WSW,12.7,0.021145833333333332,Overcast,False,False,False,False,False,False,False,False,False,False,False,False,False,Day,Day,Day,Day,2016,2,9,8,20,30,2016,2,9,8,50,30
2,41.424404,-81.57867399999998,,,0.01,I-480 E,Maple Heights,Cuyahoga,OH,44137,US,US/Eastern,KBKL,2016-02-09 08:28:00,32.0,22.5,82.0,29.58,10.0,WSW,12.7,0.021145833333333332,Overcast,False,False,False,False,False,False,False,False,False,False,False,False,False,Day,Day,Day,Day,2016,2,9,8,35,53,2016,2,9,9,5,53
2,39.89217,-83.039169,,,0.01,I-71 S,Grove City,Franklin,OH,43123,US,US/Eastern,KTZR,2016-02-09 09:50:00,32.0,9.5,93.0,29.69,5.0,WSW,11.5,0.021145833333333332,Overcast,False,False,False,False,False,False,False,False,False,False,False,False,False,Day,Day,Day,Day,2016,2,9,10,6,46,2016,2,9,10,36,46
1,41.022358,-83.650345,,,0.01,S Main St,Findlay,Hancock,OH,45840-1319,US,US/Eastern,KFDY,2016-02-09 11:04:00,32.0,13.5,81.0,29.64,2.5,WSW,17.3,0.0,Light Snow,False,False,True,False,False,False,False,False,False,False,False,True,False,Day,Day,Day,Day,2016,2,9,11,9,37,2016,2,9,11,39,37
1,39.206806,-84.053253,,,0.0,Short Leuders Rd,Goshen,Clermont,OH,45122,US,US/Eastern,KI69,2016-02-10 06:16:00,32.0,4.7,81.0,29.95,5.0,West,9.2,0.021145833333333332,Light Snow,False,False,False,False,False,False,False,False,False,False,False,False,False,Night,Night,Night,Day,2016,2,10,6,18,16,2016,2,10,6,48,16
2,39.973797,-83.022285,,,0.01,Twin Rivers Dr,Columbus,Franklin,OH,43215,US,US/Eastern,KCMH,2016-02-10 06:19:00,32.0,2.7,73.0,29.87,4.0,WSW,11.5,0.0,Light Snow,False,False,False,False,False,False,False,False,False,False,False,False,False,Night,Night,Night,Day,2016,2,10,6,6,0,2016,2,10,9,6,0
1,40.048008,-82.86421999999997,,,0.0,N Hamilton Rd,Columbus,Franklin,OH,43230,US,US/Eastern,KCMH,2016-02-10 06:19:00,32.0,2.7,73.0,29.87,4.0,WSW,11.5,0.0,Light Snow,False,False,True,False,False,False,False,False,False,False,False,True,False,Night,Night,Night,Day,2016,2,10,6,24,29,2016,2,10,6,54,29
1,39.814526,-84.021744,,,0.01,S Central Ave,Fairborn,Greene,OH,45324,US,US/Eastern,KFFO,2016-02-10 06:58:00,32.0,1.0,82.0,29.95,7.0,SW,13.8,0.0,Light Snow,False,False,True,False,False,False,True,False,False,False,False,False,False,Night,Night,Day,Day,2016,2,10,6,53,2,2016,2,10,7,23,2
2,40.151196,-84.22003199999997,,,0.01,E Ash St,Piqua,Miami,OH,45356,US,US/Eastern,KVES,2016-02-10 07:55:00,32.0,-1.4,93.0,29.89,7.0,West,15.0,0.021145833333333332,Light Snow,False,False,False,False,False,False,False,False,False,False,False,False,False,Day,Day,Day,Day,2016,2,10,7,50,52,2016,2,10,8,20,52
2,39.954617,-82.844238,,,0.01,Outerbelt N,Columbus,Franklin,OH,43232,US,US/Eastern,KCMH,2016-02-10 07:51:00,32.0,4.2,77.0,29.92,1.0,SW,8.1,0.01,Light Snow,False,False,False,False,False,False,False,False,False,False,False,False,False,Day,Day,Day,Day,2016,2,10,7,50,8,2016,2,10,8,20,8
1,38.990551,-84.207497,,,0.01,Lindale Nicholsville Rd,New Richmond,Clermont,OH,45157-9006,US,US/Eastern,KI69,2016-02-10 07:56:00,32.0,6.1,88.0,29.96,1.8,West,6.9,0.021145833333333332,Light Snow,False,False,False,False,False,False,False,False,False,False,False,False,False,Day,Day,Day,Day,2016,2,10,8,1,30,2016,2,10,8,31,30
1,40.008995,-83.002678,,,0.0,Indianola Ave,Columbus,Franklin,OH,43202-3023,US,US/Eastern,KOSU,2016-02-10 07:53:00,32.0,1.7,81.0,29.91,1.5,WSW,13.8,0.0,Light Snow,False,False,False,False,False,False,False,False,False,False,False,False,False,Day,Day,Day,Day,2016,2,10,8,8,36,2016,2,10,8,38,36
1,39.077332,-84.225014,,,0.0,Lake Allyn Rd,Batavia,Clermont,OH,45103-8992,US,US/Eastern,KI69,2016-02-10 08:16:00,32.0,2.7,84.0,29.97,4.0,West,11.5,0.021145833333333332,Light Snow,False,False,False,False,False,False,False,False,False,False,False,False,False,Day,Day,Day,Day,2016,2,10,8,11,22,2016,2,10,8,41,22
1,39.955452,-82.795845,,,0.01,E Main St,Reynoldsburg,Franklin,OH,43068-1207,US,US/Eastern,KCMH,2016-02-10 08:51:00,32.0,4.4,77.0,29.93,1.0,WSW,9.2,0.0,Light Snow,False,False,False,False,False,False,False,False,True,False,False,False,False,Day,Day,Day,Day,2016,2,10,8,50,54,2016,2,10,9,20,54
2,40.224586,-82.929085,,,0.01,North Fwy N,Galena,Delaware,OH,43021,US,US/Eastern,KDLZ,2016-02-10 08:55:00,32.0,5.0,79.0,29.87,3.0,West,11.5,0.021145833333333332,Haze,False,False,False,False,False,False,False,False,False,False,False,False,False,Day,Day,Day,Day,2016,2,10,9,3,53,2016,2,10,9,33,53
2,39.976398,-83.119225,,,0.01,Outerbelt S,Columbus,Franklin,OH,43204,US,US/Eastern,KTZR,2016-02-10 09:50:00,32.0,3.4,79.0,29.91,1.5,West,10.4,0.021145833333333332,Light Snow,False,False,False,False,False,False,False,False,False,False,False,False,False,Day,Day,Day,Day,2016,2,10,9,42,4,2016,2,10,10,12,4
2,39.98560300000001,-82.939247,,,0.01,E 5th Ave,Columbus,Franklin,OH,43219,US,US/Eastern,KCMH,2016-02-10 10:51:00,32.0,3.0,77.0,29.96,1.5,West,13.8,0.0,Light Snow,False,False,False,False,False,False,False,False,False,False,False,False,False,Day,Day,Day,Day,2016,2,10,10,38,58,2016,2,10,11,8,58
2,41.040714,-81.61314399999998,,,0.01,US-224 W,Barberton,Summit,OH,44203,US,US/Eastern,KAKR,2016-02-10 16:54:00,32.0,8.6,81.0,29.89,1.0,WNW,10.4,0.0,Light Snow,False,False,False,False,True,False,False,False,False,False,False,False,False,Day,Day,Day,Day,2016,2,10,17,10,0,2016,2,10,23,59,0
2,41.083679,-81.579002,,,1.28,Copley Rd,Akron,Summit,OH,44320-2561,US,US/Eastern,KAKR,2016-02-10 18:10:00,32.0,7.3,78.0,29.87,4.0,WNW,12.7,0.0,Light Snow,False,False,False,False,False,False,False,False,False,False,False,False,False,Night,Day,Day,Day,2016,2,10,18,9,0,2016,2,10,23,59,0
2,40.766891,-82.42411,,,0.01,I-71 N,Mansfield,Richland,OH,44903,US,US/Eastern,KMFD,2016-02-10 18:52:00,32.0,2.9,77.0,29.97,7.0,WSW,11.5,0.0,Overcast,False,False,False,False,False,False,False,False,False,False,False,False,False,Night,Night,Day,Day,2016,2,10,18,41,44,2016,2,10,19,11,44
2,41.422199,-81.843018,,,0.01,Grayton Rd,Cleveland,Cuyahoga,OH,44135,US,US/Eastern,KCLE,2016-02-11 05:51:00,32.0,0.5,56.0,30.14,9.0,NW,11.5,0.0,Light Snow,False,False,False,False,False,False,False,False,False,False,False,False,False,Night,Night,Night,Night,2016,2,11,5,32,29,2016,2,11,6,2,29
2,41.063995,-81.57294499999998,,,0.01,Vernon Odom Blvd,Akron,Summit,OH,44320-4026,US,US/Eastern,KAKR,2016-02-11 05:30:00,32.0,1.2,74.0,30.03,4.0,NW,10.4,0.0,Light Snow,False,False,False,False,False,False,False,False,False,False,False,False,False,Night,Night,Night,Night,2016,2,11,5,30,51,2016,2,11,6,0,51
1,39.747753,-84.20558199999998,,,0.01,I-75 S,Dayton,Montgomery,OH,45417,US,US/Eastern,KDAY,2016-02-11 05:56:00,32.0,-5.7,87.0,30.22,10.0,West,8.1,0.021145833333333332,Scattered Clouds,False,False,False,False,False,False,False,False,False,False,False,False,False,Night,Night,Night,Day,2016,2,11,6,10,7,2016,2,11,6,40,7
1,38.99408,-84.142021,,,0.01,S Bantam Rd,Bethel,Clermont,OH,45106-9354,US,US/Eastern,KI69,2016-02-11 06:16:00,32.0,23.36869565217391,70.0,30.18,10.0,Calm,9.396476547016075,0.021145833333333332,Overcast,False,False,False,False,False,False,False,False,False,True,False,False,False,Night,Night,Night,Day,2016,2,11,6,20,28,2016,2,11,6,50,28
2,41.420818,-81.694008,,,0.01,I-480 E,Cleveland,Cuyahoga,OH,44109,US,US/Eastern,KBKL,2016-02-11 06:53:00,32.0,-0.3,59.0,30.12,10.0,NW,17.3,0.021145833333333332,Overcast,False,False,False,False,False,False,False,False,False,False,False,False,False,Night,Night,Day,Day,2016,2,11,6,29,0,2016,2,11,21,0,0
1,40.030342,-83.030197,,,0.01,Olentangy River Rd,Columbus,Franklin,OH,43202,US,US/Eastern,KOSU,2016-02-11 06:53:00,32.0,-6.8,83.0,30.22,10.0,West,8.1,0.021145833333333332,Partly Cloudy,False,False,True,False,False,False,False,False,False,False,False,True,False,Night,Day,Day,Day,2016,2,11,7,17,58,2016,2,11,7,47,58
1,39.858089,-82.827904,,,0.01,Gender Rd,Canal Winchester,Franklin,OH,43110,US,US/Eastern,KLCK,2016-02-11 07:15:00,32.0,-2.1,81.0,30.2,10.0,SW,3.5,0.021145833333333332,Clear,False,False,False,False,False,False,False,False,False,False,False,False,False,Night,Day,Day,Day,2016,2,11,7,18,39,2016,2,11,7,48,39
2,41.112324,-81.60992399999998,,,0.01,I-77 S,Akron,Summit,OH,44321,US,US/Eastern,KAKR,2016-02-11 07:28:00,32.0,0.5,80.0,30.08,2.0,West,8.1,0.0,Light Snow,False,False,False,False,False,False,False,False,False,False,False,False,False,Night,Day,Day,Day,2016,2,11,7,21,55,2016,2,11,7,51,55
1,39.994061,-82.729416,,,0.01,Mink St SW,Pataskala,Licking,OH,43062-9413,US,US/Eastern,KVTA,2016-02-11 07:54:00,32.0,23.36869565217391,77.0,30.24,10.0,North,9.396476547016075,0.021145833333333332,Overcast,False,False,False,False,False,False,False,False,False,False,False,False,False,Day,Day,Day,Day,2016,2,11,7,28,16,2016,2,11,7,58,16
2,41.355396,-81.81926700000002,,,0.01,I-71 S,Cleveland,Cuyahoga,OH,44130,US,US/Eastern,KCLE,2016-02-11 07:51:00,32.0,-1.6,51.0,30.18,10.0,NW,17.3,0.021145833333333332,Mostly Cloudy,False,False,False,False,False,False,False,False,False,False,False,False,False,Day,Day,Day,Day,2016,2,11,7,29,6,2016,2,11,8,18,10
1,39.687389,-84.23796800000002,,,0.0,Vance Rd,Dayton,Montgomery,OH,45439,US,US/Eastern,KMGY,2016-02-11 07:53:00,32.0,23.36869565217391,77.0,30.26,9.0,Calm,9.396476547016075,0.021145833333333332,Clear,False,False,False,False,False,False,False,False,False,False,False,False,False,Day,Day,Day,Day,2016,2,11,7,53,55,2016,2,11,8,23,55
1,39.751038,-84.214325,,,0.01,Home Ave,Dayton,Montgomery,OH,45402-8230,US,US/Eastern,KFFO,2016-02-11 07:58:00,32.0,-1.1,87.0,30.28,10.0,SSW,4.6,0.021145833333333332,Scattered Clouds,False,False,False,False,False,False,False,False,False,False,False,False,False,Day,Day,Day,Day,2016,2,11,8,7,2,2016,2,11,8,37,2
1,39.749916,-84.139359,,,0.01,US-35 E,Dayton,Montgomery,OH,45410,US,US/Eastern,KFFO,2016-02-11 07:58:00,32.0,-1.1,87.0,30.28,10.0,SSW,4.6,0.021145833333333332,Scattered Clouds,False,False,False,False,False,False,False,False,False,False,False,False,False,Day,Day,Day,Day,2016,2,11,8,13,24,2016,2,11,8,43,24
1,39.97509,-82.88460500000002,,,0.01,E Broad St,Columbus,Franklin,OH,43213-1359,US,US/Eastern,KCMH,2016-02-11 08:51:00,32.0,2.7,70.0,30.27,9.0,WNW,5.8,0.021145833333333332,Overcast,False,False,True,False,False,False,False,False,False,False,False,True,False,Day,Day,Day,Day,2016,2,11,8,23,17,2016,2,11,8,53,17
1,40.11195,-83.016663,,,0.48,N High St,Columbus,Franklin,OH,43235,US,US/Eastern,KOSU,2016-02-11 08:53:00,32.0,1.5,77.0,30.26,10.0,West,6.9,0.021145833333333332,Overcast,False,False,False,False,True,False,False,False,False,False,False,False,False,Day,Day,Day,Day,2016,2,11,8,34,14,2016,2,11,9,4,14
2,41.424313,-81.57914,,,0.01,I-480 E,Maple Heights,Cuyahoga,OH,44137,US,US/Eastern,KBKL,2016-02-11 08:53:00,32.0,-0.2,54.0,30.16,10.0,WNW,17.3,0.021145833333333332,Overcast,False,False,False,False,False,False,False,False,False,False,False,False,False,Day,Day,Day,Day,2016,2,11,8,29,21,2016,2,11,8,59,21
1,39.691864,-84.211166,,,0.0,Lamme Rd,Dayton,Montgomery,OH,45439,US,US/Eastern,KMGY,2016-02-11 08:53:00,32.0,23.36869565217391,73.0,30.28,10.0,Calm,9.396476547016075,0.021145833333333332,Clear,False,False,False,False,False,False,False,False,False,False,False,False,False,Day,Day,Day,Day,2016,2,11,9,16,13,2016,2,11,10,1,13
1,39.769173,-84.20728299999998,,,0.0,W Grand Ave,Dayton,Montgomery,OH,45405-4408,US,US/Eastern,KDAY,2016-02-11 08:56:00,32.0,0.2,77.0,30.29,10.0,WNW,6.9,0.021145833333333332,Mostly Cloudy,False,False,False,False,False,False,False,False,False,False,False,True,False,Day,Day,Day,Day,2016,2,11,9,16,13,2016,2,11,10,1,13
1,39.75452,-84.159279,,,0.01,US-35 E,Dayton,Montgomery,OH,45410,US,US/Eastern,KFFO,2016-02-11 09:58:00,32.0,7.7,74.0,30.32,10.0,Variable,3.5,0.021145833333333332,Overcast,False,False,False,False,False,False,False,False,False,False,False,False,False,Day,Day,Day,Day,2016,2,11,9,31,23,2016,2,11,10,1,23
2,39.874947,-83.003937,,,0.01,S High St,Columbus,Franklin,OH,43207,US,US/Eastern,KLCK,2016-02-11 09:35:00,32.0,2.2,78.0,30.25,10.0,South,4.6,0.021145833333333332,Overcast,False,False,False,False,True,False,False,False,False,False,False,False,False,Day,Day,Day,Day,2016,2,11,9,37,31,2016,2,11,10,7,31
1,39.769596,-84.176964,,,0.01,N Keowee St,Dayton,Montgomery,OH,45404,US,US/Eastern,KFFO,2016-02-11 09:58:00,32.0,7.7,74.0,30.32,10.0,Variable,3.5,0.021145833333333332,Overcast,False,False,False,False,False,False,False,False,False,False,False,False,False,Day,Day,Day,Day,2016,2,11,9,46,39,2016,2,11,10,16,39
1,39.776417,-84.23026999999998,,,0.0,Burroughs Dr,Dayton,Montgomery,OH,45406,US,US/Eastern,KDAY,2016-02-11 10:56:00,32.0,6.1,68.0,30.32,10.0,WNW,10.4,0.021145833333333332,Mostly Cloudy,False,False,False,False,False,False,False,False,False,False,False,False,False,Day,Day,Day,Day,2016,2,11,10,48,29,2016,2,11,11,18,29
1,39.64185,-84.227455,,,0.0,Mall Woods Dr,Dayton,Montgomery,OH,45449-3625,US,US/Eastern,KMGY,2016-02-11 10:53:00,32.0,8.7,54.0,30.31,10.0,WNW,6.9,0.021145833333333332,Clear,False,False,False,False,False,False,False,False,False,False,False,False,False,Day,Day,Day,Day,2016,2,11,10,53,56,2016,2,11,11,23,56
1,39.76028400000001,-84.196434,,,0.01,W 2nd St,Dayton,Montgomery,OH,45402-1411,US,US/Eastern,KFFO,2016-02-11 10:58:00,32.0,7.5,62.0,30.32,10.0,WNW,9.2,0.021145833333333332,Mostly Cloudy,False,False,True,False,False,False,False,False,False,False,False,True,False,Day,Day,Day,Day,2016,2,11,11,21,42,2016,2,11,11,51,42
1,39.802528,-84.220093,,,0.01,N Main St,Dayton,Montgomery,OH,45405-1604,US,US/Eastern,KDAY,2016-02-11 11:56:00,32.0,9.3,65.0,30.32,10.0,WNW,9.2,0.021145833333333332,Mostly Cloudy,False,False,False,False,False,False,False,False,False,False,False,False,False,Day,Day,Day,Day,2016,2,11,12,24,45,2016,2,11,13,9,45
1,39.828781,-84.19839499999998,,,0.01,N Dixie Dr,Dayton,Montgomery,OH,45414-3309,US,US/Eastern,KDAY,2016-02-11 11:56:00,32.0,9.3,65.0,30.32,10.0,WNW,9.2,0.021145833333333332,Mostly Cloudy,False,False,False,False,False,False,False,False,False,False,False,True,False,Day,Day,Day,Day,2016,2,11,12,24,18,2016,2,11,12,54,18
1,39.733337,-84.180359,,,0.01,Springhouse Rd,Dayton,Montgomery,OH,45409,US,US/Eastern,KFFO,2016-02-11 13:58:00,32.0,13.0,49.0,30.3,10.0,West,6.9,0.021145833333333332,Mostly Cloudy,True,False,True,False,False,False,False,False,False,False,False,True,False,Day,Day,Day,Day,2016,2,11,13,44,46,2016,2,11,14,14,46
1,39.759426,-84.138367,,,0.01,Speice Ave,Dayton,Montgomery,OH,45403-3130,US,US/Eastern,KFFO,2016-02-11 13:58:00,32.0,13.0,49.0,30.3,10.0,West,6.9,0.021145833333333332,Mostly Cloudy,False,False,False,False,False,False,False,False,False,False,False,False,False,Day,Day,Day,Day,2016,2,11,14,16,49,2016,2,11,14,46,49
1,39.78361500000001,-84.227531,,,0.0,Auburn Ave,Dayton,Montgomery,OH,45406-5615,US,US/Eastern,KDAY,2016-02-11 15:56:00,32.0,14.6,57.0,30.32,10.0,WNW,4.6,0.021145833333333332,Mostly Cloudy,False,False,False,False,False,False,False,False,False,False,False,False,False,Day,Day,Day,Day,2016,2,11,15,34,6,2016,2,11,16,19,6
1,39.74004,-84.194923,,,0.01,W Stewart St,Dayton,Montgomery,OH,45417,US,US/Eastern,KDAY,2016-02-11 16:56:00,32.0,11.4,57.0,30.33,10.0,North,8.1,0.021145833333333332,Mostly Cloudy,False,False,True,False,False,False,False,False,False,False,False,True,False,Day,Day,Day,Day,2016,2,11,16,34,27,2016,2,11,17,19,27
2,39.735199,-84.204948,,,0.01,I-75 S,Dayton,Montgomery,OH,45417,US,US/Eastern,KDAY,2016-02-11 16:56:00,32.0,11.4,57.0,30.33,10.0,North,8.1,0.021145833333333332,Mostly Cloudy,False,False,False,False,False,False,False,False,False,False,False,False,False,Day,Day,Day,Day,2016,2,11,17,10,0,2016,2,11,20,0,0
1,39.749035,-84.20474200000002,,,0.01,I-75 N,Dayton,Montgomery,OH,45402,US,US/Eastern,KFFO,2016-02-11 17:58:00,32.0,11.4,51.0,30.34,10.0,NW,8.1,0.021145833333333332,Mostly Cloudy,False,False,False,False,False,False,False,False,False,False,False,False,False,Night,Day,Day,Day,2016,2,11,18,27,0,2016,2,11,21,0,0
2,39.969223,-82.984131,,,0.01,E Innerbelt S,Columbus,Franklin,OH,43203,US,US/Eastern,KCMH,2016-02-11 18:51:00,32.0,23.36869565217391,57.0,30.34,9.0,Calm,9.396476547016075,0.0,Light Snow,False,False,False,False,False,False,False,False,False,False,False,False,False,Night,Night,Night,Day,2016,2,11,19,11,0,2016,2,11,21,0,0
2,39.995369,-82.985085,,,0.01,North Fwy S,Columbus,Franklin,OH,43211,US,US/Eastern,KCMH,2016-02-11 19:51:00,32.0,11.7,62.0,30.35,10.0,SW,3.5,0.0,Mostly Cloudy,False,False,False,False,False,False,False,False,False,False,False,False,False,Night,Night,Night,Day,2016,2,11,19,22,0,2016,2,11,21,0,0
2,39.744873,-84.205025,,,0.01,I-75 S,Dayton,Montgomery,OH,45417,US,US/Eastern,KDAY,2016-02-11 20:56:00,32.0,23.36869565217391,68.0,30.35,10.0,Calm,9.396476547016075,0.021145833333333332,Scattered Clouds,False,False,False,False,False,False,False,False,False,False,False,False,False,Night,Night,Night,Night,2016,2,11,20,48,0,2016,2,11,23,54,0
1,39.749786,-84.199493,,,0.0,S Edwin C Moses Blvd,Dayton,Montgomery,OH,45402-8430,US,US/Eastern,KFFO,2016-02-12 16:13:00,32.0,14.3,59.0,30.04,10.0,West,16.1,0.021145833333333332,Light Snow,False,False,True,False,False,False,False,False,False,False,False,True,False,Day,Day,Day,Day,2016,2,12,16,16,51,2016,2,12,17,1,51
1,39.780331,-84.195076,,,0.01,Stanley Ave,Dayton,Montgomery,OH,45404-1016,US,US/Eastern,KFFO,2016-02-12 16:58:00,32.0,12.9,66.0,30.11,7.0,West,16.1,0.0,Light Snow,False,False,False,False,False,False,False,False,False,False,False,False,False,Day,Day,Day,Day,2016,2,12,16,42,52,2016,2,12,17,27,52
2,40.109928,-82.97820300000002,,,1.67,North Fwy S,Columbus,Franklin,OH,43229,US,US/Eastern,KOSU,2016-02-12 17:50:00,32.0,11.1,80.0,30.03,3.0,West,12.7,0.0,Light Snow,False,False,False,False,True,False,False,False,False,False,False,False,False,Day,Day,Day,Day,2016,2,12,17,47,41,2016,2,12,18,52,13
2,40.11195,-83.016663,,,0.94,N High St,Columbus,Franklin,OH,43235,US,US/Eastern,KOSU,2016-02-12 19:53:00,32.0,1.6,71.0,30.14,5.0,NW,17.3,0.0,Light Snow,False,False,False,False,True,False,False,False,False,False,False,False,False,Night,Night,Night,Night,2016,2,12,20,4,0,2016,2,12,23,59,0
2,40.112156,-83.035072,,,0.94,Outerbelt E,Columbus,Franklin,OH,43235,US,US/Eastern,KOSU,2016-02-12 19:53:00,32.0,1.6,71.0,30.14,5.0,NW,17.3,0.0,Light Snow,False,False,False,False,True,False,False,False,False,False,False,False,False,Night,Night,Night,Night,2016,2,12,20,12,0,2016,2,12,23,59,0
2,39.871761,-82.933449,,,2.79,Outerbelt E,Columbus,Franklin,OH,43207,US,US/Eastern,KLCK,2016-02-12 20:35:00,32.0,3.2,62.0,30.13,10.0,NW,17.3,0.021145833333333332,Scattered Clouds,False,False,False,False,False,False,False,False,False,False,False,False,False,Night,Night,Night,Night,2016,2,12,20,41,0,2016,2,12,23,59,0
2,39.934517,-82.86065699999997,,,0.01,I-70 E,Columbus,Franklin,OH,43232,US,US/Eastern,KCMH,2016-02-12 23:51:00,32.0,1.7,68.0,30.25,10.0,NW,13.8,0.0,Mostly Cloudy,False,False,False,False,False,False,False,False,False,False,False,False,False,Night,Night,Night,Night,2016,2,12,23,48,0,2016,2,13,1,0,0
2,40.02404,-82.99479699999998,,,0.01,E Weber Rd,Columbus,Franklin,OH,43211,US,US/Eastern,KCMH,2016-02-13 10:51:00,32.0,-4.5,44.0,30.54,10.0,NW,11.5,0.021145833333333332,Partly Cloudy,False,False,False,False,False,False,False,False,False,False,False,False,False,Day,Day,Day,Day,2016,2,13,11,5,0,2016,2,13,11,35,0
2,41.014015,-81.932777,,,0.01,I-71 N,Seville,Medina,OH,44273,US,US/Eastern,KBJJ,2016-02-13 10:56:00,32.0,-8.4,61.0,30.48,10.0,WNW,13.8,0.021145833333333332,Scattered Clouds,False,False,False,False,False,False,False,False,False,False,False,False,False,Day,Day,Day,Day,2016,2,13,11,5,21,2016,2,13,12,5,21
1,40.575069,-82.528145,,,0.01,State Route 13,Bellville,Richland,OH,44813-9053,US,US/Eastern,KMFD,2016-02-13 10:52:00,32.0,-8.3,58.0,30.49,10.0,WNW,11.5,0.021145833333333332,Clear,False,False,False,False,False,False,False,False,False,False,False,False,False,Day,Day,Day,Day,2016,2,13,11,17,1,2016,2,13,12,17,1
2,39.996578,-84.21680500000002,,,0.01,I-75 S,Troy,Miami,OH,45373,US,US/Eastern,KDAY,2016-02-13 10:56:00,32.0,-1.8,51.0,30.57,10.0,NW,9.2,0.021145833333333332,Scattered Clouds,False,False,False,False,False,False,False,False,False,False,False,False,False,Day,Day,Day,Day,2016,2,13,11,25,42,2016,2,13,11,55,42
2,39.986324,-82.985458,,,0.01,North Fwy S,Columbus,Franklin,OH,43201,US,US/Eastern,KCMH,2016-02-13 12:51:00,32.0,-3.4,43.0,30.53,10.0,NNW,16.1,0.021145833333333332,Mostly Cloudy,False,False,False,False,True,False,False,False,False,False,False,False,False,Day,Day,Day,Day,2016,2,13,12,56,31,2016,2,13,13,26,31
2,40.013062,-82.90213,,,0.01,Outerbelt N,Columbus,Franklin,OH,43230,US,US/Eastern,KCMH,2016-02-13 12:51:00,32.0,-3.4,43.0,30.53,10.0,NNW,16.1,0.021145833333333332,Mostly Cloudy,False,False,False,False,False,False,False,False,False,False,False,False,False,Day,Day,Day,Day,2016,2,13,12,55,47,2016,2,13,13,25,47
2,39.981709,-82.98436,,,0.01,North Fwy N,Columbus,Franklin,OH,43201,US,US/Eastern,KCMH,2016-02-14 09:51:00,32.0,0.4,70.0,30.52,10.0,SE,5.8,0.021145833333333332,Scattered Clouds,False,False,False,False,False,False,False,False,False,False,False,False,False,Day,Day,Day,Day,2016,2,14,10,13,0,2016,2,14,23,59,0
2,39.953022,-82.99889399999998,,,0.01,S High St,Columbus,Franklin,OH,43215,US,US/Eastern,KCMH,2016-02-14 10:51:00,32.0,-0.2,65.0,30.5,10.0,SSE,10.4,0.021145833333333332,Scattered Clouds,False,False,False,False,False,False,False,False,False,False,False,False,False,Day,Day,Day,Day,2016,2,14,10,49,23,2016,2,14,11,19,23
2,39.973812,-82.983162,,,0.01,I-670 E,Columbus,Franklin,OH,43203,US,US/Eastern,KCMH,2016-02-14 10:51:00,32.0,-0.2,65.0,30.5,10.0,SSE,10.4,0.021145833333333332,Scattered Clouds,False,False,False,False,False,False,False,False,False,False,False,False,False,Day,Day,Day,Day,2016,2,14,10,41,57,2016,2,14,11,11,57
2,39.978306,-82.852554,,,0.01,E Broad St,Columbus,Franklin,OH,43213,US,US/Eastern,KCMH,2016-02-14 18:06:00,32.0,3.4,79.0,30.24,0.5,ESE,10.4,0.0,Snow,False,False,False,False,True,False,False,False,False,False,False,False,False,Night,Day,Day,Day,2016,2,14,18,15,23,2016,2,14,19,30,0
2,39.917412,-83.014236,,,0.01,Frank Rd,Columbus,Franklin,OH,43223,US,US/Eastern,KTZR,2016-02-14 19:15:00,32.0,23.36869565217391,86.0,30.23,1.0,Calm,9.396476547016075,0.021145833333333332,Light Snow,False,False,False,False,False,False,False,False,False,False,False,False,False,Night,Night,Night,Day,2016,2,14,19,17,1,2016,2,14,20,30,0
1,39.469582,-83.712799,,,0.01,E US Highway 22 3,Wilmington,Clinton,OH,45177-7762,US,US/Eastern,KILN,2016-02-15 04:54:00,32.0,13.9,96.0,30.09,2.5,SSE,8.1,0.021145833333333332,Overcast,False,False,False,False,False,False,False,False,False,False,False,False,False,Night,Night,Night,Night,2016,2,15,4,53,47,2016,2,15,5,23,47
1,39.63958,-84.234818,,,0.01,Byers Rd,Miamisburg,Montgomery,OH,45342-3613,US,US/Eastern,KMGY,2016-02-15 05:03:00,32.0,13.9,92.0,29.97,1.5,SSE,8.1,0.021145833333333332,Overcast,False,False,False,False,False,False,False,False,False,False,False,False,False,Night,Night,Night,Night,2016,2,15,5,22,0,2016,2,15,5,52,0
2,39.975986,-82.996307,,,0.71,I-670 W,Columbus,Franklin,OH,43215,US,US/Eastern,KCMH,2016-02-15 05:51:00,32.0,14.5,89.0,30.06,5.0,SE,5.8,0.0,Light Freezing Drizzle,False,False,False,False,True,False,False,False,False,False,False,False,False,Night,Night,Night,Night,2016,2,15,5,42,25,2016,2,15,6,12,25
2,39.951401,-83.040161,,,0.01,I-70 W,Columbus,Franklin,OH,43223,US,US/Eastern,KTZR,2016-02-15 06:15:00,32.0,13.6,96.0,30.02,3.0,SSE,8.1,0.021145833333333332,Light Snow,False,False,False,False,False,False,False,False,False,False,False,False,False,Night,Night,Day,Day,2016,2,15,6,36,0,2016,2,15,9,0,0
1,39.96888,-83.022263,,,2.04,North Innerbelt W,Columbus,Franklin,OH,43215,US,US/Eastern,KCMH,2016-02-15 07:01:00,32.0,15.8,86.0,30.03,3.0,SE,5.8,0.0,Light Freezing Drizzle,False,False,False,False,False,False,False,False,False,False,False,False,False,Night,Day,Day,Day,2016,2,15,7,2,39,2016,2,15,7,32,39
2,39.804295,-84.178917,,,0.01,Webster St,Dayton,Montgomery,OH,45414-4935,US,US/Eastern,KDAY,2016-02-15 06:56:00,32.0,15.8,96.0,30.03,0.2,SSE,5.8,0.0,Light Freezing Drizzle,False,False,False,False,False,False,False,False,False,False,False,False,False,Night,Day,Day,Day,2016,2,15,7,17,51,2016,2,15,7,47,51
1,39.831444,-84.097267,,,0.0,Greeley Ave,Dayton,Montgomery,OH,45424-1794,US,US/Eastern,KFFO,2016-02-15 06:58:00,32.0,17.0,98.0,30.04,1.5,SSE,5.8,0.0,Light Snow,False,False,False,False,False,False,False,False,False,False,False,False,False,Night,Day,Day,Day,2016,2,15,7,15,56,2016,2,15,7,45,56
2,39.890587,-83.03538499999998,,,0.01,Outerbelt W,Grove City,Franklin,OH,43123,US,US/Eastern,KTZR,2016-02-15 07:20:00,32.0,17.9,100.0,30.01,1.5,SE,5.8,0.021145833333333332,Light Snow,False,False,False,False,False,False,False,False,False,False,False,False,False,Night,Day,Day,Day,2016,2,15,7,7,0,2016,2,15,10,0,0
2,39.770977,-84.183914,,,0.01,OH-4 S,Dayton,Montgomery,OH,45404,US,US/Eastern,KFFO,2016-02-15 07:38:00,32.0,23.36869565217391,100.0,30.04,1.5,SSW,2.3,0.021145833333333332,Light Freezing Drizzle,False,False,False,False,False,False,False,False,False,False,False,False,False,Night,Day,Day,Day,2016,2,15,7,23,58,2016,2,15,7,53,58
1,39.808121,-84.173477,,,0.01,Chuck Wagner Ln,Dayton,Montgomery,OH,45414,US,US/Eastern,KDAY,2016-02-15 07:56:00,32.0,18.2,96.0,30.02,0.8,SE,4.6,0.0,Light Freezing Drizzle,False,False,False,False,False,False,False,False,False,False,False,False,False,Night,Day,Day,Day,2016,2,15,7,28,24,2016,2,15,7,58,24
1,41.410461,-81.725853,,,0.0,Westlake Ave,Cleveland,Cuyahoga,OH,44129-2344,US,US/Eastern,KCLE,2016-02-15 07:51:00,32.0,9.3,85.0,30.1,4.0,SSE,11.5,0.0,Light Snow,False,False,False,False,False,False,False,False,False,False,False,False,False,Day,Day,Day,Day,2016,2,15,7,37,49,2016,2,15,8,7,49
2,39.747753,-84.20558199999998,,,0.01,I-75 S,Dayton,Montgomery,OH,45417,US,US/Eastern,KDAY,2016-02-15 07:56:00,32.0,18.2,96.0,30.02,0.8,SE,4.6,0.0,Light Freezing Drizzle,False,False,False,False,False,False,False,False,False,False,False,False,False,Day,Day,Day,Day,2016,2,15,7,46,58,2016,2,15,8,16,58
2,39.6395,-84.23136099999998,,,0.01,Miamisburg Centerville Rd,Dayton,Montgomery,OH,45449,US,US/Eastern,KMGY,2016-02-15 07:53:00,32.0,17.6,92.0,30.01,4.0,South,8.1,0.021145833333333332,Overcast,False,False,False,False,False,False,False,False,False,False,False,False,False,Day,Day,Day,Day,2016,2,15,7,52,29,2016,2,15,8,22,29
1,39.94537,-82.88744399999999,,,0.01,S Yearling Rd,Columbus,Franklin,OH,43227-2072,US,US/Eastern,KCMH,2016-02-15 07:51:00,32.0,17.0,91.0,30.06,1.0,SE,5.8,0.01,Light Freezing Drizzle,False,False,False,False,False,False,False,False,True,False,False,True,False,Day,Day,Day,Day,2016,2,15,8,0,58,2016,2,15,8,30,58
1,39.79813,-84.24479699999998,,,0.01,Klepinger Rd,Dayton,Montgomery,OH,45406,US,US/Eastern,KDAY,2016-02-15 08:23:00,32.0,17.1,96.0,29.99,0.8,South,6.9,0.0,Overcast,False,False,False,False,False,False,False,False,False,False,False,True,False,Day,Day,Day,Day,2016,2,15,8,11,33,2016,2,15,8,41,33
1,40.081715,-82.89576,,,0.01,S Sunbury Rd,Westerville,Franklin,OH,43081,US,US/Eastern,KCMH,2016-02-15 07:51:00,32.0,17.0,91.0,30.06,1.0,SE,5.8,0.01,Light Freezing Drizzle,False,False,False,False,False,False,False,False,False,False,False,True,False,Day,Day,Day,Day,2016,2,15,8,10,15,2016,2,15,8,40,15
1,41.111031,-81.550728,,,0.0,Burning Tree Dr,Akron,Summit,OH,44303-1209,US,US/Eastern,KAKR,2016-02-15 08:03:00,32.0,15.8,85.0,30.03,2.0,SSE,5.8,0.021145833333333332,Overcast,False,False,False,False,False,False,False,False,False,False,False,False,False,Day,Day,Day,Day,2016,2,15,8,15,1,2016,2,15,9,4,0
1,40.082016,-82.937119,,,0.01,E Dublin Granville Rd,Columbus,Franklin,OH,43231,US,US/Eastern,KCMH,2016-02-15 08:51:00,32.0,19.4,88.0,30.06,1.0,SSE,5.8,0.01,Light Freezing Drizzle,False,False,False,False,False,False,False,False,False,False,False,True,False,Day,Day,Day,Day,2016,2,15,8,31,47,2016,2,15,9,1,47
1,39.763363,-84.15535,,,0.0,E 4th St,Dayton,Montgomery,OH,45403-2111,US,US/Eastern,KFFO,2016-02-15 08:58:00,32.0,23.0,98.0,30.04,2.5,SSW,3.5,0.0,Light Freezing Drizzle,False,False,False,False,False,False,False,False,False,False,False,False,False,Day,Day,Day,Day,2016,2,15,8,39,4,2016,2,15,9,9,4
1,39.740063,-84.191833,,,0.01,W Stewart St,Dayton,Montgomery,OH,45402,US,US/Eastern,KFFO,2016-02-15 11:51:00,32.0,26.4,100.0,29.99,1.5,SSE,5.8,0.021145833333333332,Overcast,False,False,True,False,False,False,False,False,False,False,False,True,False,Day,Day,Day,Day,2016,2,15,11,31,2,2016,2,15,12,1,2
1,39.99876,-82.625221,,,0.01,Blacks Rd SW,Pataskala,Licking,OH,43062-8599,US,US/Eastern,KVTA,2016-02-15 12:54:00,32.0,24.8,85.0,29.99,5.0,South,8.1,0.021145833333333332,Overcast,False,False,False,False,False,False,False,False,False,False,False,False,False,Day,Day,Day,Day,2016,2,15,12,30,47,2016,2,15,13,15,47
1,39.740063,-84.191833,,,0.01,W Stewart St,Dayton,Montgomery,OH,45402,US,US/Eastern,KFFO,2016-02-15 12:27:00,32.0,26.4,100.0,29.98,4.0,South,5.8,0.021145833333333332,Overcast,False,False,True,False,False,False,False,False,False,False,False,True,False,Day,Day,Day,Day,2016,2,15,12,34,50,2016,2,15,13,19,50
1,39.99519,-82.86859100000002,,,0.01,Sawyer Rd,Columbus,Franklin,OH,43219,US,US/Eastern,KCMH,2016-02-15 12:51:00,32.0,23.5,89.0,29.99,2.0,South,8.1,0.0,Mostly Cloudy,False,False,False,False,False,False,False,False,False,False,False,True,False,Day,Day,Day,Day,2016,2,15,12,53,44,2016,2,15,13,23,44
0,41.395805,-81.935562,,,0.0,Maplehurst Rd,North Olmsted,Cuyahoga,OH,44070-5152,US,US/Eastern,KCLE,2016-02-15 17:51:00,33.1,27.7,82.0,29.95,7.0,SSE,5.8,0.021145833333333332,Overcast,False,False,False,False,False,False,False,False,False,False,False,False,False,Day,Day,Day,Day,2016,2,15,17,22,10,2016,2,15,18,7,10
1,39.887058,-82.883263,,,0.01,Williams Rd,Groveport,Franklin,OH,43125,US,US/Eastern,KLCK,2016-02-15 18:35:00,33.6,30.6,94.0,29.86,7.0,East,3.5,0.021145833333333332,Light Drizzle,False,False,False,False,False,False,False,False,False,False,False,True,False,Night,Day,Day,Day,2016,2,15,18,27,18,2016,2,15,19,12,18
2,39.824703,-83.141228,,,0.01,I-71 N,Orient,Franklin,OH,43146,US,US/Eastern,KTZR,2016-02-15 19:35:00,32.9,23.36869565217391,100.0,29.86,1.8,Calm,9.396476547016075,0.021145833333333332,Overcast,False,False,False,False,False,False,False,False,False,False,False,False,False,Night,Night,Night,Day,2016,2,15,19,37,18,2016,2,15,20,22,18
1,40.977516,-82.790749,,,0.0,N Auburn Rd,Tiro,Crawford,OH,44887-9600,US,US/Eastern,KMFD,2016-02-15 20:52:00,32.0,26.4,100.0,29.88,0.5,ESE,5.8,0.021145833333333332,Fog,False,False,False,False,False,False,False,False,False,False,False,False,False,Night,Night,Night,Night,2016,2,15,21,9,25,2016,2,15,21,39,25
2,40.11195,-83.016663,,,0.01,N High St,Columbus,Franklin,OH,43235,US,US/Eastern,KOSU,2016-02-16 03:53:00,32.0,24.8,100.0,29.71,1.2,NW,8.1,0.021145833333333332,Light Snow,False,False,False,False,True,False,False,False,False,False,False,False,False,Night,Night,Night,Night,2016,2,16,4,5,51,2016,2,16,4,35,51
2,41.150993,-81.631393,,,0.01,I-77 S,Akron,Summit,OH,44333,US,US/Eastern,KAKR,2016-02-16 04:54:00,34.0,28.0,89.0,29.67,1.2,North,6.9,0.021145833333333332,Light Snow,False,False,False,False,True,False,False,False,False,False,False,False,False,Night,Night,Night,Night,2016,2,16,4,32,29,2016,2,16,5,2,29
2,39.824703,-83.141228,,,0.01,I-71 N,Orient,Franklin,OH,43146,US,US/Eastern,KTZR,2016-02-16 05:15:00,32.2,25.8,100.0,29.7,3.0,NW,6.9,0.021145833333333332,Light Snow,False,False,False,False,False,False,False,False,False,False,False,False,False,Night,Night,Night,Night,2016,2,16,5,22,24,2016,2,16,5,52,24
1,39.885872,-82.806198,,,0.0,Bowen Rd,Canal Winchester,Franklin,OH,43110,US,US/Eastern,KLCK,2016-02-16 05:35:00,32.0,26.4,99.0,29.69,2.5,NNW,5.8,0.021145833333333332,Light Snow,False,False,False,False,False,False,False,False,False,False,False,False,False,Night,Night,Night,Night,2016,2,16,5,37,52,2016,2,16,6,7,52
2,40.11195,-83.016663,,,0.01,N High St,Columbus,Franklin,OH,43235,US,US/Eastern,KOSU,2016-02-16 05:53:00,33.1,26.1,96.0,29.71,5.0,NNW,8.1,0.0,Overcast,False,False,False,False,True,False,False,False,False,False,False,False,False,Night,Night,Night,Day,2016,2,16,6,5,20,2016,2,16,6,50,20
2,40.09917100000001,-83.134499,,,0.01,Columbus Marysville Rd N,Dublin,Franklin,OH,43017,US,US/Eastern,KOSU,2016-02-16 05:53:00,33.1,26.1,96.0,29.71,5.0,NNW,8.1,0.0,Overcast,False,False,False,False,False,False,False,False,False,False,False,False,False,Night,Night,Night,Day,2016,2,16,6,17,32,2016,2,16,6,47,32
1,40.012829,-83.109131,,,0.01,Scioto Darby Rd,Columbus,Franklin,OH,43221,US,US/Eastern,KOSU,2016-02-16 06:53:00,32.0,23.0,96.0,29.71,5.0,NNW,11.5,0.021145833333333332,Overcast,False,False,False,False,False,False,False,False,False,False,False,True,False,Night,Night,Day,Day,2016,2,16,6,32,55,2016,2,16,7,2,55
1,40.048183,-82.945183,,,0.01,Westerville Rd,Columbus,Franklin,OH,43224-2585,US,US/Eastern,KCMH,2016-02-16 06:51:00,32.0,23.6,92.0,29.71,2.0,NNW,10.4,0.01,Overcast,False,False,False,False,False,False,False,False,False,False,False,False,False,Night,Night,Day,Day,2016,2,16,6,29,15,2016,2,16,6,59,15
1,39.77792,-84.246872,,,0.0,Otterbein Ave,Dayton,Montgomery,OH,45406-3629,US,US/Eastern,KDAY,2016-02-16 06:56:00,32.0,22.2,96.0,29.78,2.0,NW,10.4,0.021145833333333332,Overcast,False,False,False,False,False,False,False,False,False,False,False,False,False,Night,Night,Day,Day,2016,2,16,6,39,15,2016,2,16,7,9,15
2,39.917412,-83.014236,,,1.65,Frank Rd,Columbus,Franklin,OH,43223,US,US/Eastern,KTZR,2016-02-16 06:15:00,32.2,25.8,100.0,29.69,4.0,NNW,6.9,0.021145833333333332,Overcast,False,False,False,False,False,False,False,False,False,False,False,False,False,Night,Night,Day,Day,2016,2,16,6,34,11,2016,2,16,7,4,11
2,41.313236,-81.810959,,,0.01,I-71 N,Strongsville,Cuyahoga,OH,44136,US,US/Eastern,KCLE,2016-02-16 06:51:00,32.0,24.8,92.0,29.73,1.8,North,8.1,0.02,Light Snow,False,False,False,False,False,False,False,False,False,False,False,False,False,Night,Night,Day,Day,2016,2,16,6,47,0,2016,2,16,7,17,0
1,39.691998,-84.043655,,,0.01,Indian Ripple Rd,Beavercreek,Montgomery,OH,45440-3606,US,US/Eastern,KMGY,2016-02-16 06:53:00,32.0,24.8,88.0,29.76,3.0,NW,8.1,0.021145833333333332,Overcast,False,False,False,False,False,False,False,False,False,False,False,False,False,Night,Night,Day,Day,2016,2,16,6,50,7,2016,2,16,7,20,7
1,39.852417,-82.93860600000002,,,0.01,Toy Rd,Groveport,Franklin,OH,43125,US,US/Eastern,KLCK,2016-02-16 06:55:00,32.0,24.8,99.0,29.7,7.0,NW,8.1,0.021145833333333332,Overcast,False,False,False,False,False,False,False,False,False,False,False,True,False,Night,Night,Day,Day,2016,2,16,6,50,44,2016,2,16,7,20,44
2,39.956909,-83.044914,,,0.01,I-70 E,Columbus,Franklin,OH,43223,US,US/Eastern,KTZR,2016-02-16 07:25:00,32.0,25.6,100.0,29.72,3.0,NNW,6.9,0.021145833333333332,Overcast,False,False,False,False,False,False,False,False,False,False,False,False,False,Night,Day,Day,Day,2016,2,16,7,2,31,2016,2,16,7,32,31
1,39.602947,-82.951836,,,0.01,OH-56,Circleville,Pickaway,OH,43113,US,US/Eastern,KLCK,2016-02-16 07:15:00,32.0,23.6,99.0,29.71,7.0,NW,10.4,0.021145833333333332,Overcast,False,False,False,False,False,False,False,False,False,False,False,False,False,Night,Day,Day,Day,2016,2,16,7,10,35,2016,2,16,7,40,35
1,39.89188400000001,-83.087547,,,0.01,Southwest Blvd,Grove City,Franklin,OH,43123-2251,US,US/Eastern,KTZR,2016-02-16 07:25:00,32.0,25.6,100.0,29.72,3.0,NNW,6.9,0.021145833333333332,Overcast,False,False,False,False,False,False,False,False,False,False,False,False,False,Night,Day,Day,Day,2016,2,16,7,12,17,2016,2,16,7,42,17
1,39.78508400000001,-84.210564,,,0.01,N Main St,Dayton,Montgomery,OH,45405-3527,US,US/Eastern,KDAY,2016-02-16 07:27:00,32.0,21.1,100.0,29.75,2.0,NNW,10.4,0.021145833333333332,Overcast,False,False,False,False,False,False,False,False,False,False,False,True,False,Day,Day,Day,Day,2016,2,16,7,29,7,2016,2,16,7,59,7
2,40.1105,-82.977524,,,0.01,Outerbelt W,Columbus,Franklin,OH,43085,US,US/Eastern,KOSU,2016-02-16 07:53:00,32.0,24.2,96.0,29.75,3.0,NW,9.2,0.021145833333333332,Overcast,False,False,False,False,False,False,False,False,False,False,False,False,False,Day,Day,Day,Day,2016,2,16,7,52,41,2016,2,16,8,22,41
1,40.757088,-82.50975,,,0.01,E 2nd St,Mansfield,Richland,OH,44902-2068,US,US/Eastern,KMFD,2016-02-16 07:52:00,32.0,21.1,100.0,29.73,5.0,NNW,10.4,0.0,Overcast,False,False,False,False,False,False,False,False,False,True,False,False,False,Day,Day,Day,Day,2016,2,16,7,55,23,2016,2,16,8,25,23
2,41.063995,-81.57294499999998,,,0.01,Vernon Odom Blvd,Akron,Summit,OH,44320-4026,US,US/Eastern,KAKR,2016-02-16 07:54:00,34.0,28.0,89.0,29.68,1.8,North,6.9,0.0,Light Snow,False,False,False,False,False,False,False,False,False,False,False,False,False,Day,Day,Day,Day,2016,2,16,7,56,9,2016,2,16,8,26,9
2,40.004749,-82.867638,,,0.01,N Hamilton Rd,Columbus,Franklin,OH,43230,US,US/Eastern,KCMH,2016-02-16 07:51:00,32.0,24.8,88.0,29.75,5.0,NNW,8.1,0.021145833333333332,Overcast,False,False,False,False,False,False,False,False,False,False,False,False,False,Day,Day,Day,Day,2016,2,16,7,58,47,2016,2,16,8,28,47
1,40.033955,-83.000862,,,0.01,Indianola Ave,Columbus,Franklin,OH,43214-3810,US,US/Eastern,KOSU,2016-02-16 07:53:00,32.0,24.2,96.0,29.75,3.0,NW,9.2,0.021145833333333332,Overcast,False,False,False,False,False,False,False,False,True,False,False,False,False,Day,Day,Day,Day,2016,2,16,8,13,51,2016,2,16,8,43,51
1,38.929512,-83.495262,,,1.65,Appalachian Hwy,Peebles,Adams,OH,45660,US,US/Eastern,KILN,2016-02-16 08:12:00,32.0,22.8,100.0,29.76,1.0,WNW,9.2,0.021145833333333332,Overcast,False,False,False,False,False,False,False,False,False,False,False,False,False,Day,Day,Day,Day,2016,2,16,8,20,32,2016,2,16,8,50,32
2,39.973419,-83.081558,,,0.01,N Hague Ave,Columbus,Franklin,OH,43204-2174,US,US/Eastern,KTZR,2016-02-16 08:47:00,32.0,28.7,100.0,29.77,2.5,NW,3.5,0.021145833333333332,Overcast,False,False,False,False,False,False,False,False,False,False,False,False,False,Day,Day,Day,Day,2016,2,16,8,26,30,2016,2,16,8,56,30
1,39.797958,-84.255135,,,0.01,Free Pike,Dayton,Montgomery,OH,45416-1234,US,US/Eastern,KDAY,2016-02-16 08:41:00,32.0,23.2,96.0,29.79,1.5,NW,6.9,0.021145833333333332,Overcast,False,False,False,False,False,False,False,False,False,False,False,True,False,Day,Day,Day,Day,2016,2,16,8,36,20,2016,2,16,9,6,20
2,40.057369,-82.903717,,,0.01,Outerbelt S,Columbus,Franklin,OH,43230,US,US/Eastern,KCMH,2016-02-16 08:51:00,32.0,24.8,88.0,29.78,4.0,NW,8.1,0.021145833333333332,Overcast,False,False,False,False,False,False,False,False,False,False,False,False,False,Day,Day,Day,Day,2016,2,16,8,42,17,2016,2,16,9,12,17
1,39.847927,-82.848274,,,0.01,Groveport Rd,Canal Winchester,Franklin,OH,43110,US,US/Eastern,KLCK,2016-02-16 08:35:00,32.0,26.4,97.0,29.76,3.0,NW,5.8,0.021145833333333332,Overcast,False,False,False,False,False,False,False,False,False,False,False,False,False,Day,Day,Day,Day,2016,2,16,8,41,46,2016,2,16,9,11,46
1,40.051949,-83.03280600000002,,,0.01,W Henderson Rd,Columbus,Franklin,OH,43214,US,US/Eastern,KOSU,2016-02-16 08:53:00,32.0,26.4,96.0,29.78,2.5,NW,5.8,0.021145833333333332,Overcast,False,False,False,False,False,False,False,False,False,False,False,False,False,Day,Day,Day,Day,2016,2,16,8,57,31,2016,2,16,9,27,31
1,40.051949,-83.03280600000002,,,0.01,W Henderson Rd,Columbus,Franklin,OH,43214,US,US/Eastern,KOSU,2016-02-16 10:00:00,33.1,24.9,92.0,29.77,2.5,WNW,10.4,0.021145833333333332,Overcast,False,False,False,False,False,False,False,False,False,False,False,False,False,Day,Day,Day,Day,2016,2,16,10,3,0,2016,2,16,13,0,0
1,39.772823,-84.135612,,,0.0,Radio Rd,Dayton,Greene,OH,45431-1035,US,US/Eastern,KFFO,2016-02-16 10:58:00,32.0,25.4,88.0,29.86,6.0,WNW,5.8,0.021145833333333332,Overcast,False,False,False,False,False,False,False,False,False,False,False,False,False,Day,Day,Day,Day,2016,2,16,10,58,52,2016,2,16,11,28,52
1,39.673203,-84.221886,,,0.01,Springboro Pike,Dayton,Montgomery,OH,45449-2808,US,US/Eastern,KMGY,2016-02-16 11:29:00,32.0,22.8,76.0,29.81,6.0,WNW,9.2,0.021145833333333332,Haze,False,False,False,False,False,False,False,False,False,False,False,True,False,Day,Day,Day,Day,2016,2,16,11,12,18,2016,2,16,11,42,18
1,39.76244000000001,-84.20506999999998,,,0.01,Salem Ave,Dayton,Montgomery,OH,45406,US,US/Eastern,KDAY,2016-02-16 11:06:00,32.0,24.1,92.0,29.82,1.8,NW,5.8,0.0,Light Snow,False,False,True,False,False,False,False,False,False,False,False,True,False,Day,Day,Day,Day,2016,2,16,11,11,35,2016,2,16,11,41,35
1,39.79166,-84.169342,,,0.0,Kuntz Rd,Dayton,Montgomery,OH,45404-1222,US,US/Eastern,KFFO,2016-02-16 10:58:00,32.0,25.4,88.0,29.86,6.0,WNW,5.8,0.021145833333333332,Overcast,False,False,False,False,False,False,False,False,False,False,False,False,False,Day,Day,Day,Day,2016,2,16,11,10,17,2016,2,16,11,40,17
1,39.72757,-84.13549,,,0.0,Russell Ave,Dayton,Montgomery,OH,45420,US,US/Eastern,KFFO,2016-02-16 10:58:00,32.0,25.4,88.0,29.86,6.0,WNW,5.8,0.021145833333333332,Overcast,False,False,False,False,False,False,False,False,False,False,False,False,False,Day,Day,Day,Day,2016,2,16,11,11,3,2016,2,16,11,41,3
2,40.09917100000001,-83.134499,,,0.01,Columbus Marysville Rd N,Dublin,Franklin,OH,43017,US,US/Eastern,KOSU,2016-02-16 11:36:00,32.0,23.0,92.0,29.78,2.5,West,11.5,0.021145833333333332,Overcast,False,False,False,False,False,False,False,False,False,False,False,False,False,Day,Day,Day,Day,2016,2,16,11,32,10,2016,2,16,12,2,10
2,38.455898,-81.93562299999998,,,0.01,WV-34,Hurricane,Putnam,WV,25526,US,US/Eastern,KCRW,2016-02-16 13:54:00,35.1,27.9,89.0,29.81,2.0,WSW,9.2,0.021145833333333332,Overcast,False,False,False,False,False,False,False,False,False,False,False,False,False,Day,Day,Day,Day,2016,2,16,13,46,9,2016,2,16,14,16,9
1,39.764778,-84.177193,,,0.01,N Keowee St,Dayton,Montgomery,OH,45402,US,US/Eastern,KFFO,2016-02-16 13:58:00,32.4,25.3,79.0,29.81,10.0,West,8.1,0.021145833333333332,Overcast,False,False,False,False,False,False,False,False,False,False,False,True,False,Day,Day,Day,Day,2016,2,16,14,2,11,2016,2,16,14,47,11
2,40.016014,-82.903442,,,0.01,Northeast Fwy S,Columbus,Franklin,OH,43230,US,US/Eastern,KCMH,2016-02-16 16:51:00,32.0,24.2,75.0,29.82,7.0,WNW,9.2,0.0,Overcast,False,False,False,False,True,False,False,False,False,False,False,False,False,Day,Day,Day,Day,2016,2,16,16,47,0,2016,2,16,21,0,0
1,39.686901,-83.911812,,,0.01,E Main St,Xenia,Greene,OH,45385-3309,US,US/Eastern,KFFO,2016-02-17 05:58:00,32.0,26.9,90.0,30.08,10.0,West,3.5,0.021145833333333332,Overcast,False,False,True,False,False,False,False,False,False,False,False,True,False,Night,Night,Night,Night,2016,2,17,5,31,16,2016,2,17,6,1,16
1,39.74403,-84.214638,,,0.01,S Broadway St,Dayton,Montgomery,OH,45417-3913,US,US/Eastern,KDAY,2016-02-17 05:56:00,32.0,23.2,88.0,30.07,6.0,WNW,6.9,0.021145833333333332,Overcast,False,False,False,False,False,False,False,False,False,False,False,False,False,Night,Night,Night,Night,2016,2,17,5,45,55,2016,2,17,6,15,55
1,39.955738,-83.002953,,,0.01,S 2nd St,Columbus,Franklin,OH,43215,US,US/Eastern,KCMH,2016-02-17 06:46:00,32.0,21.2,80.0,30.05,7.0,WNW,6.9,0.021145833333333332,Overcast,True,False,True,False,False,False,False,False,False,False,False,True,False,Night,Night,Day,Day,2016,2,17,6,27,1,2016,2,17,6,57,1
1,38.98587,-84.052551,,,0.01,State Route 133,Bethel,Clermont,OH,45106-8345,US,US/Eastern,KI69,2016-02-17 06:37:00,32.0,27.5,91.0,30.07,7.0,West,3.5,0.021145833333333332,Overcast,False,False,False,False,False,False,False,False,False,False,False,False,False,Night,Night,Day,Day,2016,2,17,6,32,23,2016,2,17,7,2,23
1,41.12336,-81.652626,,,0.01,I-77 N,Akron,Summit,OH,44321,US,US/Eastern,KAKR,2016-02-17 06:54:00,32.0,21.7,81.0,30.03,7.0,SW,5.8,0.0,Overcast,False,False,False,False,False,False,False,False,False,False,False,False,False,Night,Night,Day,Day,2016,2,17,6,44,13,2016,2,17,7,14,13
2,41.403664,-82.13942,,,0.01,OH-2 W,Elyria,Lorain,OH,44035,US,US/Eastern,KLPR,2016-02-17 07:20:00,32.0,20.8,85.0,30.03,6.0,West,6.9,0.021145833333333332,Overcast,False,False,False,False,False,False,False,False,False,False,False,False,False,Night,Day,Day,Day,2016,2,17,7,10,58,2016,2,17,7,40,58
2,39.719009,-84.21461500000002,,,0.01,I-75 N,Dayton,Montgomery,OH,45439,US,US/Eastern,KMGY,2016-02-17 07:06:00,32.0,24.1,82.0,30.07,5.0,West,5.8,0.021145833333333332,Haze,False,False,False,False,False,False,False,False,False,False,False,False,False,Night,Day,Day,Day,2016,2,17,7,14,8,2016,2,17,7,44,8
2,41.063995,-81.57294499999998,,,0.01,Vernon Odom Blvd,Akron,Summit,OH,44320-4026,US,US/Eastern,KAKR,2016-02-17 06:54:00,32.0,21.7,81.0,30.03,7.0,SW,5.8,0.0,Overcast,False,False,False,False,False,False,False,False,False,False,False,False,False,Day,Day,Day,Day,2016,2,17,7,22,56,2016,2,17,7,52,56
1,39.741764,-84.209923,,,0.0,W Stewart St,Dayton,Montgomery,OH,45417-3933,US,US/Eastern,KDAY,2016-02-17 07:56:00,32.0,22.4,92.0,30.14,3.0,NW,8.1,0.021145833333333332,Overcast,False,False,False,False,False,False,False,False,False,False,False,False,False,Day,Day,Day,Day,2016,2,17,7,29,2,2016,2,17,7,59,2
2,39.933804,-82.78944399999997,,,0.01,Hill Rd N,Pickerington,Fairfield,OH,43147,US,US/Eastern,KLHQ,2016-02-17 07:28:00,32.0,26.5,79.0,30.08,7.0,WSW,3.5,0.021145833333333332,Overcast,False,False,False,False,False,False,False,False,False,False,False,False,False,Day,Day,Day,Day,2016,2,17,7,30,19,2016,2,17,8,0,19
1,39.673203,-84.221886,,,0.01,Springboro Pike,Dayton,Montgomery,OH,45449-2808,US,US/Eastern,KMGY,2016-02-17 07:53:00,32.0,25.2,85.0,30.12,3.0,West,4.6,0.021145833333333332,Overcast,False,False,False,False,False,False,False,False,False,False,False,True,False,Day,Day,Day,Day,2016,2,17,7,40,55,2016,2,17,8,10,55
1,38.997852,-84.043739,,,1.73,Clover Rd,Bethel,Clermont,OH,45106-8301,US,US/Eastern,KI69,2016-02-17 07:37:00,32.0,24.5,92.0,30.11,7.0,West,6.9,0.021145833333333332,Overcast,False,False,False,False,False,False,False,False,False,False,False,False,False,Day,Day,Day,Day,2016,2,17,7,39,25,2016,2,17,8,9,25
1,40.080402,-82.87745699999998,,,0.01,New Albany Expy W,Westerville,Franklin,OH,43081,US,US/Eastern,KCMH,2016-02-17 07:44:00,32.0,23.4,75.0,30.08,5.0,West,6.9,0.021145833333333332,Haze,False,False,False,False,False,False,False,False,False,False,False,False,False,Day,Day,Day,Day,2016,2,17,7,43,28,2016,2,17,8,13,28
2,41.04023,-81.608711,,,0.01,Barber Rd,Barberton,Summit,OH,44203,US,US/Eastern,KAKR,2016-02-17 07:54:00,32.0,22.8,81.0,30.06,6.0,WSW,4.6,0.021145833333333332,Haze,False,False,False,False,True,False,False,False,False,False,False,False,False,Day,Day,Day,Day,2016,2,17,7,52,9,2016,2,17,8,22,9
1,39.749664,-84.201012,,,0.0,Washington St,Dayton,Montgomery,OH,45402-8457,US,US/Eastern,KFFO,2016-02-17 07:58:00,32.0,24.9,90.0,30.14,4.0,WNW,5.8,0.021145833333333332,Overcast,False,False,False,False,False,False,False,False,False,False,False,False,False,Day,Day,Day,Day,2016,2,17,8,2,55,2016,2,17,8,32,55
1,39.749916,-84.139359,,,0.01,US-35 E,Dayton,Montgomery,OH,45410,US,US/Eastern,KFFO,2016-02-17 07:58:00,32.0,24.9,90.0,30.14,4.0,WNW,5.8,0.021145833333333332,Overcast,False,False,False,False,False,False,False,False,False,False,False,False,False,Day,Day,Day,Day,2016,2,17,8,4,44,2016,2,17,8,34,44
2,41.039204,-81.631744,,,0.01,US-224 E,Barberton,Summit,OH,44203,US,US/Eastern,KAKR,2016-02-17 07:50:00,32.0,21.2,80.0,30.02,6.0,WSW,6.9,0.021145833333333332,Haze,False,False,False,False,False,False,False,False,False,False,False,False,False,Day,Day,Day,Day,2016,2,17,7,49,0,2016,2,17,21,0,0
1,40.993484,-82.03600300000002,,,0.0,Franchester Rd,Burbank,Wayne,OH,44214-9603,US,US/Eastern,KBJJ,2016-02-17 07:56:00,32.0,18.0,85.0,30.08,4.0,WSW,9.2,0.021145833333333332,Overcast,False,False,False,False,False,False,False,False,False,False,False,False,False,Day,Day,Day,Day,2016,2,17,8,17,11,2016,2,17,8,47,11
2,41.407391,-81.64676700000003,,,0.01,Outerbelt South Fwy W,Independence,Cuyahoga,OH,44131,US,US/Eastern,KBKL,2016-02-17 08:15:00,32.0,21.1,82.0,30.05,6.0,WSW,10.4,0.0,Light Snow,False,False,False,False,False,False,False,False,False,False,False,False,False,Day,Day,Day,Day,2016,2,17,8,28,56,2016,2,17,8,58,56
1,39.732441,-84.224243,,,0.01,Nicholas Rd,Dayton,Montgomery,OH,45417-6720,US,US/Eastern,KDAY,2016-02-17 08:56:00,32.0,22.4,96.0,30.18,2.5,NW,8.1,0.021145833333333332,Overcast,False,False,False,False,False,False,False,False,False,False,False,False,False,Day,Day,Day,Day,2016,2,17,8,33,39,2016,2,17,9,3,39
2,39.773193,-84.187454,,,0.01,I-75 S,Dayton,Montgomery,OH,45404,US,US/Eastern,KFFO,2016-02-17 08:58:00,32.0,25.4,92.0,30.18,6.0,WNW,5.8,0.021145833333333332,Overcast,False,False,False,False,False,False,False,False,False,False,False,False,False,Day,Day,Day,Day,2016,2,17,8,59,18,2016,2,17,9,29,18
1,39.792931,-84.215195,,,0.01,N Main St,Dayton,Montgomery,OH,45405-2858,US,US/Eastern,KDAY,2016-02-17 09:56:00,32.0,26.4,88.0,30.2,4.0,West,5.8,0.021145833333333332,Overcast,False,False,False,False,False,False,False,False,False,False,False,False,False,Day,Day,Day,Day,2016,2,17,10,0,29,2016,2,17,10,30,29
2,39.948299,-82.047081,,,0.01,I-70 W,Zanesville,Muskingum,OH,43701,US,US/Eastern,KZZV,2016-02-17 09:53:00,33.1,27.7,72.0,30.16,5.0,West,5.8,0.021145833333333332,Haze,False,False,False,False,False,False,False,False,False,False,False,False,False,Day,Day,Day,Day,2016,2,17,10,19,4,2016,2,17,10,49,5
1,39.67263,-84.216522,,,0.0,W Alex Bell Rd,Dayton,Montgomery,OH,45459-1122,US,US/Eastern,KMGY,2016-02-17 10:30:00,32.0,26.4,82.0,30.18,4.0,West,5.8,0.021145833333333332,Haze,False,False,False,False,False,False,False,False,False,False,False,False,False,Day,Day,Day,Day,2016,2,17,10,32,29,2016,2,17,11,2,29
1,41.172302,-83.64917,,,0.01,I-75 N,North Baltimore,Wood,OH,45872,US,US/Eastern,KFDY,2016-02-17 09:53:00,33.1,23.9,82.0,30.14,3.0,West,12.7,0.021145833333333332,Haze,False,False,False,False,False,False,False,False,False,False,False,False,False,Day,Day,Day,Day,2016,2,17,10,22,0,2016,2,17,21,0,0
1,39.615208,-84.22731800000003,,,0.01,Ferndown Dr,Miamisburg,Montgomery,OH,45342,US,US/Eastern,KMGY,2016-02-17 12:53:00,35.1,32.2,67.0,30.23,9.0,NW,3.5,0.021145833333333332,Overcast,False,False,True,False,False,False,False,False,False,False,False,True,False,Day,Day,Day,Day,2016,2,17,12,57,34,2016,2,17,13,27,34
1,39.790604,-84.25140400000002,,,0.01,W Hillcrest Ave,Dayton,Montgomery,OH,45406-2543,US,US/Eastern,KDAY,2016-02-17 12:56:00,36.0,28.5,59.0,30.23,10.0,NNW,10.4,0.021145833333333332,Mostly Cloudy,False,False,False,False,False,False,False,False,False,False,False,False,False,Day,Day,Day,Day,2016,2,17,13,25,9,2016,2,17,14,10,9
1,39.968788,-83.003754,,,0.0,W Nationwide Blvd,Columbus,Franklin,OH,43215,US,US/Eastern,KCMH,2016-02-17 16:51:00,35.1,26.4,61.0,30.26,9.0,West,12.7,0.021145833333333332,Overcast,False,False,True,False,False,False,False,False,False,False,False,True,False,Day,Day,Day,Day,2016,2,17,17,17,12,2016,2,17,18,2,12
1,39.905334,-82.968689,,,0.01,Watkins Rd,Columbus,Franklin,OH,43207-2661,US,US/Eastern,KLCK,2016-02-18 04:35:00,32.0,27.7,69.0,30.39,10.0,NW,3.5,0.021145833333333332,Overcast,False,False,False,False,False,False,False,False,False,False,False,False,False,Night,Night,Night,Night,2016,2,18,4,25,2,2016,2,18,4,55,2
1,39.855103,-84.183678,,,0.01,Little York Rd,Dayton,Montgomery,OH,45414-2507,US,US/Eastern,KDAY,2016-02-18 05:56:00,32.0,23.36869565217391,81.0,30.45,7.0,Calm,9.396476547016075,0.021145833333333332,Mostly Cloudy,False,False,False,False,False,False,False,False,False,False,False,True,False,Night,Night,Night,Night,2016,2,18,5,46,52,2016,2,18,6,16,52
1,41.414131,-81.632141,,,0.01,Granger Rd,Cleveland,Cuyahoga,OH,44125-4827,US,US/Eastern,KBKL,2016-02-18 06:53:00,32.0,11.1,71.0,30.52,10.0,SE,5.8,0.021145833333333332,Clear,False,False,False,False,False,False,False,False,False,False,False,True,False,Night,Night,Day,Day,2016,2,18,6,27,59,2016,2,18,6,57,59
2,39.933804,-82.78944399999997,,,0.01,Hill Rd N,Pickerington,Fairfield,OH,43147,US,US/Eastern,KLHQ,2016-02-18 06:53:00,32.0,21.7,78.0,30.48,9.0,NNE,5.8,0.021145833333333332,Overcast,False,False,False,False,False,False,False,False,False,False,False,False,False,Night,Day,Day,Day,2016,2,18,7,0,26,2016,2,18,7,30,26
2,41.063995,-81.57294499999998,,,0.01,Vernon Odom Blvd,Akron,Summit,OH,44320-4026,US,US/Eastern,KAKR,2016-02-18 07:43:00,32.0,23.36869565217391,91.0,30.49,1.8,Calm,9.396476547016075,0.021145833333333332,Clear,False,False,False,False,False,False,False,False,False,False,False,False,False,Day,Day,Day,Day,2016,2,18,7,47,17,2016,2,18,8,17,17
2,39.75782,-83.303154,,,0.01,State Route 56 SE,Mount Sterling,Madison,OH,43143,US,US/Eastern,KTZR,2016-02-18 07:50:00,32.0,23.36869565217391,86.0,30.48,7.0,Calm,9.396476547016075,0.021145833333333332,Mostly Cloudy,False,False,False,False,False,False,False,False,False,False,False,False,False,Day,Day,Day,Day,2016,2,18,7,51,15,2016,2,18,8,21,15
2,41.42181,-81.734482,,,0.01,Ridge Rd,Cleveland,Cuyahoga,OH,44144,US,US/Eastern,KCLE,2016-02-18 07:51:00,32.0,6.9,88.0,30.58,8.0,SSE,3.5,0.021145833333333332,Clear,False,False,False,False,False,False,False,False,False,False,False,False,False,Day,Day,Day,Day,2016,2,18,7,49,43,2016,2,18,8,19,43
2,41.422199,-81.843018,,,0.01,Grayton Rd,Cleveland,Cuyahoga,OH,44135,US,US/Eastern,KCLE,2016-02-18 07:51:00,32.0,6.9,88.0,30.58,8.0,SSE,3.5,0.021145833333333332,Clear,False,False,False,False,False,False,False,False,False,False,False,False,False,Day,Day,Day,Day,2016,2,18,7,55,22,2016,2,18,8,25,22
2,39.819839,-84.189087,,,0.01,Needmore Rd,Dayton,Montgomery,OH,45414,US,US/Eastern,KDAY,2016-02-18 07:56:00,32.0,23.36869565217391,81.0,30.5,5.0,Calm,9.396476547016075,0.021145833333333332,Haze,False,False,False,False,False,False,False,False,False,False,False,False,False,Day,Day,Day,Day,2016,2,18,7,50,11,2016,2,18,8,20,11
1,39.745735,-84.120644,,,0.01,Woodman Dr,Dayton,Montgomery,OH,45432,US,US/Eastern,KFFO,2016-02-18 07:58:00,32.0,23.36869565217391,86.0,30.5,10.0,Calm,9.396476547016075,0.021145833333333332,Mostly Cloudy,False,False,False,False,False,False,False,False,False,False,False,False,False,Day,Day,Day,Day,2016,2,18,8,1,9,2016,2,18,8,31,9
2,40.004749,-82.867638,,,0.01,N Hamilton Rd,Columbus,Franklin,OH,43230,US,US/Eastern,KCMH,2016-02-18 07:51:00,32.0,23.0,75.0,30.51,7.0,East,3.5,0.021145833333333332,Scattered Clouds,False,False,False,False,False,False,False,False,False,False,False,False,False,Day,Day,Day,Day,2016,2,18,8,0,26,2016,2,18,8,30,26
1,39.626396,-84.20768699999998,,,0.01,Lyons Rd,Miamisburg,Montgomery,OH,45342-5453,US,US/Eastern,KMGY,2016-02-18 07:53:00,32.0,23.0,78.0,30.48,5.0,South,3.5,0.021145833333333332,Haze,False,False,False,False,False,False,False,False,False,False,False,False,False,Day,Day,Day,Day,2016,2,18,8,15,1,2016,2,18,8,45,1
1,39.761005,-84.15855400000002,,,0.01,E 5th St,Dayton,Montgomery,OH,45403-2633,US,US/Eastern,KFFO,2016-02-18 07:58:00,32.0,23.36869565217391,86.0,30.5,10.0,Calm,9.396476547016075,0.021145833333333332,Mostly Cloudy,False,False,False,False,False,False,False,False,False,False,False,False,False,Day,Day,Day,Day,2016,2,18,8,12,56,2016,2,18,8,42,56
1,39.765377,-84.155914,,,0.0,E 3rd St,Dayton,Montgomery,OH,45403-2021,US,US/Eastern,KFFO,2016-02-18 07:58:00,32.0,23.36869565217391,86.0,30.5,10.0,Calm,9.396476547016075,0.021145833333333332,Mostly Cloudy,False,False,False,False,False,False,False,False,False,False,False,False,False,Day,Day,Day,Day,2016,2,18,8,15,59,2016,2,18,8,45,59
2,39.936871,-82.936317,,,0.01,I-70 E,Columbus,Franklin,OH,43209,US,US/Eastern,KCMH,2016-02-18 07:51:00,32.0,23.0,75.0,30.51,7.0,East,3.5,0.021145833333333332,Scattered Clouds,False,False,False,False,False,False,False,False,False,False,False,False,False,Day,Day,Day,Day,2016,2,18,8,20,0,2016,2,18,8,50,0
2,41.420666,-81.81644399999998,,,0.01,Outerbelt South Fwy W,Cleveland,Cuyahoga,OH,44135,US,US/Eastern,KCLE,2016-02-18 08:51:00,32.0,6.3,81.0,30.62,10.0,ESE,6.9,0.021145833333333332,Clear,False,False,False,False,False,False,False,False,False,False,False,False,False,Day,Day,Day,Day,2016,2,18,8,22,38,2016,2,18,8,52,38
1,39.607605,-84.15598299999998,,,0.0,Marco Ln,Dayton,Montgomery,OH,45458-3853,US,US/Eastern,KMGY,2016-02-18 08:53:00,32.0,23.36869565217391,75.0,30.5,6.0,Calm,9.396476547016075,0.021145833333333332,Haze,False,False,False,False,False,False,False,False,False,False,False,False,False,Day,Day,Day,Day,2016,2,18,8,29,38,2016,2,18,8,59,38
1,39.819809,-84.18710300000002,,,0.0,Needmore Rd,Dayton,Montgomery,OH,45414-4203,US,US/Eastern,KDAY,2016-02-18 08:56:00,32.0,27.5,79.0,30.51,5.0,SE,3.5,0.021145833333333332,Haze,False,False,False,False,False,False,False,False,False,False,False,True,False,Day,Day,Day,Day,2016,2,18,8,37,28,2016,2,18,9,7,28
2,41.371895,-81.820786,,,0.01,I-71 N,Cleveland,Cuyahoga,OH,44130,US,US/Eastern,KCLE,2016-02-18 08:51:00,32.0,6.3,81.0,30.62,10.0,ESE,6.9,0.021145833333333332,Clear,False,False,False,False,False,False,False,False,False,False,False,False,False,Day,Day,Day,Day,2016,2,18,8,39,27,2016,2,18,9,9,27
1,39.999187,-83.075813,,,0.01,Riverside Dr,Columbus,Franklin,OH,43221-4020,US,US/Eastern,KOSU,2016-02-18 08:53:00,32.0,19.5,85.0,30.53,8.0,East,6.9,0.021145833333333332,Clear,False,False,False,False,False,False,False,False,False,False,False,True,False,Day,Day,Day,Day,2016,2,18,8,48,51,2016,2,18,9,18,51
1,39.741695,-84.163101,,,0.0,Illinois Ave,Dayton,Montgomery,OH,45410-2036,US,US/Eastern,KFFO,2016-02-18 08:58:00,32.0,23.36869565217391,82.0,30.52,10.0,Calm,9.396476547016075,0.021145833333333332,Mostly Cloudy,False,False,False,False,False,False,False,False,False,False,False,False,False,Day,Day,Day,Day,2016,2,18,8,51,29,2016,2,18,9,21,29
2,39.917412,-83.014236,,,0.01,Frank Rd,Columbus,Franklin,OH,43223,US,US/Eastern,KTZR,2016-02-18 08:50:00,32.0,23.36869565217391,80.0,30.5,7.0,Calm,9.396476547016075,0.021145833333333332,Clear,False,False,False,False,False,False,False,False,False,False,False,False,False,Day,Day,Day,Day,2016,2,18,9,0,7,2016,2,18,9,30,7
1,41.423275,-81.76001,,,0.01,Cascade Xing,Cleveland,Cuyahoga,OH,44144-2320,US,US/Eastern,KCLE,2016-02-18 08:51:00,32.0,6.3,81.0,30.62,10.0,ESE,6.9,0.021145833333333332,Clear,False,False,False,False,False,False,False,False,False,False,False,True,False,Day,Day,Day,Day,2016,2,18,9,3,24,2016,2,18,9,48,24
2,39.993843,-82.985054,,,0.01,North Fwy N,Columbus,Franklin,OH,43211,US,US/Eastern,KCMH,2016-02-18 09:51:00,32.0,23.2,72.0,30.53,7.0,East,6.9,0.021145833333333332,Mostly Cloudy,False,False,False,False,False,False,False,False,False,False,False,False,False,Day,Day,Day,Day,2016,2,18,9,25,10,2016,2,18,9,55,10
2,41.36974,-81.821457,,,0.01,I-71 S,Cleveland,Cuyahoga,OH,44130,US,US/Eastern,KCLE,2016-02-18 09:51:00,32.0,12.5,63.0,30.62,10.0,ESE,8.1,0.021145833333333332,Clear,False,False,False,False,False,False,False,False,False,False,False,False,False,Day,Day,Day,Day,2016,2,18,9,22,26,2016,2,18,9,52,26
2,41.420506,-81.816078,,,0.01,I-480 E,Cleveland,Cuyahoga,OH,44135,US,US/Eastern,KCLE,2016-02-18 09:51:00,32.0,12.5,63.0,30.62,10.0,ESE,8.1,0.021145833333333332,Clear,False,False,False,False,False,False,False,False,False,False,False,False,False,Day,Day,Day,Day,2016,2,18,9,26,39,2016,2,18,9,56,39
2,41.407391,-81.64676700000003,,,0.01,Outerbelt South Fwy W,Independence,Cuyahoga,OH,44131,US,US/Eastern,KBKL,2016-02-18 09:53:00,32.0,17.0,62.0,30.59,10.0,SSE,5.8,0.021145833333333332,Clear,False,False,False,False,False,False,False,False,False,False,False,False,False,Day,Day,Day,Day,2016,2,18,9,26,0,2016,2,18,9,56,0
1,39.869961,-84.137642,,,0.01,Troy Pike,Dayton,Montgomery,OH,45424,US,US/Eastern,KFFO,2016-02-18 08:58:00,32.0,23.36869565217391,82.0,30.52,10.0,Calm,9.396476547016075,0.021145833333333332,Mostly Cloudy,False,False,False,False,False,False,False,False,False,False,False,False,False,Day,Day,Day,Day,2016,2,18,9,45,5,2016,2,18,10,15,5
2,39.75782,-83.303154,,,0.01,State Route 56 SE,Mount Sterling,Madison,OH,43143,US,US/Eastern,KTZR,2016-02-18 09:50:00,32.0,26.4,75.0,30.51,7.0,ESE,5.8,0.021145833333333332,Scattered Clouds,False,False,False,False,False,False,False,False,False,False,False,False,False,Day,Day,Day,Day,2016,2,18,10,15,59,2016,2,18,10,45,59
2,39.84182,-84.18960600000003,,,0.01,Benchwood Rd,Dayton,Montgomery,OH,45414,US,US/Eastern,KDAY,2016-02-18 11:56:00,39.0,33.4,60.0,30.53,9.0,South,8.1,0.021145833333333332,Mostly Cloudy,False,False,False,False,False,False,False,False,False,False,False,True,False,Day,Day,Day,Day,2016,2,18,11,27,16,2016,2,18,11,57,16
1,39.695045,-84.10419499999998,,,0.0,Walnut St,Beavercreek,Montgomery,OH,45440-1379,US,US/Eastern,KMGY,2016-02-18 13:53:00,37.9,31.5,57.0,30.47,10.0,South,9.2,0.021145833333333332,Clear,False,False,False,False,False,False,False,False,False,False,False,False,False,Day,Day,Day,Day,2016,2,18,13,44,49,2016,2,18,14,14,49
1,39.754223,-84.224075,,,0.01,N James H McGee Blvd,Dayton,Montgomery,OH,45402,US,US/Eastern,KFFO,2016-02-18 15:58:00,39.9,33.4,53.0,30.45,10.0,SE,10.4,0.021145833333333332,Mostly Cloudy,False,False,False,False,False,False,False,False,False,False,False,True,False,Day,Day,Day,Day,2016,2,18,15,31,55,2016,2,18,16,16,55
1,39.759544,-84.191811,,,0.01,S Main St,Dayton,Montgomery,OH,45402,US,US/Eastern,KFFO,2016-02-18 15:58:00,39.9,33.4,53.0,30.45,10.0,SE,10.4,0.021145833333333332,Mostly Cloudy,True,False,True,False,False,False,False,False,False,False,False,True,False,Day,Day,Day,Day,2016,2,18,15,46,33,2016,2,18,16,31,33
1,39.755566,-84.180534,,,0.01,Wayne Ave,Dayton,Montgomery,OH,45410-1117,US,US/Eastern,KFFO,2016-02-18 15:58:00,39.9,33.4,53.0,30.45,10.0,SE,10.4,0.021145833333333332,Mostly Cloudy,False,False,False,False,False,False,False,False,False,False,False,False,False,Day,Day,Day,Day,2016,2,18,15,46,10,2016,2,18,16,31,10
2,39.960938,-84.189583,,,0.01,W Main St,Tipp City,Miami,OH,45371,US,US/Eastern,KDAY,2016-02-18 16:56:00,37.9,28.2,60.0,30.41,10.0,SSE,17.3,0.021145833333333332,Overcast,False,False,False,False,False,False,False,False,False,False,False,False,False,Day,Day,Day,Day,2016,2,18,16,40,55,2016,2,18,17,10,55
1,39.609039,-84.155869,,,0.0,Mandel Dr,Dayton,Montgomery,OH,45458-3876,US,US/Eastern,KMGY,2016-02-18 16:53:00,37.9,28.9,55.0,30.41,10.0,SE,16.1,0.021145833333333332,Clear,False,False,False,False,False,False,False,False,False,False,False,False,False,Day,Day,Day,Day,2016,2,18,16,43,30,2016,2,18,17,13,30
2,39.953472,-82.960274,,,0.01,I-70 E,Columbus,Franklin,OH,43205,US,US/Eastern,KCMH,2016-02-18 16:51:00,35.1,29.3,57.0,30.47,9.0,ESE,6.9,0.021145833333333332,Overcast,False,False,False,False,False,False,False,False,False,False,False,False,False,Day,Day,Day,Day,2016,2,18,17,16,50,2016,2,18,17,46,50
1,40.106297,-83.036079,,,0.01,Olentangy Fwy S,Columbus,Franklin,OH,43235,US,US/Eastern,KOSU,2016-02-18 17:53:00,36.0,28.5,59.0,30.43,10.0,ESE,10.4,0.021145833333333332,Clear,False,False,False,False,False,False,False,False,False,False,False,False,False,Day,Day,Day,Day,2016,2,18,17,24,32,2016,2,18,18,9,32
1,39.812687,-84.22734799999998,,,0.01,N Main St,Dayton,Montgomery,OH,45405,US,US/Eastern,KDAY,2016-02-19 03:56:00,39.9,30.8,63.0,30.13,10.0,SSE,17.3,0.021145833333333332,Overcast,False,False,True,False,False,False,False,False,False,False,False,True,False,Night,Night,Night,Night,2016,2,19,4,22,53,2016,2,19,4,52,53
1,39.724258,-84.213142,,,0.01,Arbor Blvd,Moraine,Montgomery,OH,45439-1510,US,US/Eastern,KMGY,2016-02-19 04:53:00,39.9,32.9,60.0,30.12,10.0,South,11.5,0.021145833333333332,Clear,False,False,False,False,False,False,False,False,False,False,False,False,False,Night,Night,Night,Night,2016,2,19,4,23,43,2016,2,19,4,53,43
1,39.929554,-82.995773,,,0.01,W Morrill Ave,Columbus,Franklin,OH,43207-1850,US,US/Eastern,KLCK,2016-02-19 04:55:00,35.4,28.4,68.0,30.18,10.0,SE,9.2,0.021145833333333332,Clear,False,False,True,False,False,False,False,False,False,False,False,False,False,Night,Night,Night,Night,2016,2,19,5,0,42,2016,2,19,5,30,42
2,39.976398,-83.119225,,,0.01,Outerbelt S,Columbus,Franklin,OH,43204,US,US/Eastern,KTZR,2016-02-19 05:15:00,34.9,27.1,70.0,30.16,10.0,SSE,10.4,0.021145833333333332,Clear,False,False,False,False,False,False,False,False,False,False,False,False,False,Night,Night,Night,Night,2016,2,19,5,24,23,2016,2,19,5,54,23
1,39.915928,-82.98246800000003,,,0.01,Groveport Rd,Columbus,Franklin,OH,43207,US,US/Eastern,KLCK,2016-02-19 06:15:00,35.4,29.7,68.0,30.15,10.0,SSE,6.9,0.021145833333333332,Clear,False,False,False,False,False,False,False,False,False,False,False,False,False,Night,Night,Night,Day,2016,2,19,6,8,10,2016,2,19,6,53,10
1,39.009884,-84.173073,,,0.01,State Route 125,Batavia,Clermont,OH,45103,US,US/Eastern,KI69,2016-02-19 06:36:00,43.5,37.1,57.0,30.11,10.0,South,12.7,0.021145833333333332,Clear,False,False,False,False,False,False,False,False,False,False,False,True,False,Night,Night,Day,Day,2016,2,19,6,33,33,2016,2,19,7,3,33
1,39.737701,-84.134987,,,0.0,Meriline Ave,Dayton,Montgomery,OH,45420-2827,US,US/Eastern,KFFO,2016-02-19 06:58:00,41.0,34.7,61.0,30.1,10.0,SSE,10.4,0.021145833333333332,Clear,False,False,False,False,False,False,False,False,False,False,False,False,False,Night,Night,Day,Day,2016,2,19,6,36,2,2016,2,19,7,6,2
1,39.974285,-82.961174,,,0.0,Taylor Ave,Columbus,Franklin,OH,43203-1222,US,US/Eastern,KCMH,2016-02-19 06:51:00,36.0,27.5,57.0,30.16,10.0,SE,12.7,0.021145833333333332,Mostly Cloudy,False,False,False,False,False,False,False,False,True,False,False,True,False,Night,Day,Day,Day,2016,2,19,7,6,51,2016,2,19,7,36,51
1,40.152611,-82.686996,,,0.01,N Williams St,Johnstown,Licking,OH,43031-1037,US,US/Eastern,KCMH,2016-02-19 07:51:00,37.0,28.9,57.0,30.15,10.0,SE,12.7,0.021145833333333332,Overcast,True,False,False,False,False,False,False,False,False,False,False,False,False,Day,Day,Day,Day,2016,2,19,7,23,9,2016,2,19,7,53,9
1,39.786629,-84.18869000000002,,,0.01,N Keowee St,Dayton,Montgomery,OH,45404-1104,US,US/Eastern,KFFO,2016-02-19 07:58:00,42.8,37.0,60.0,30.08,10.0,SSE,10.4,0.021145833333333332,Mostly Cloudy,False,False,True,False,False,False,False,False,False,False,False,True,False,Day,Day,Day,Day,2016,2,19,7,39,56,2016,2,19,8,9,56
1,40.016937,-83.156601,,,0.01,Hilliard Rome Rd,Hilliard,Franklin,OH,43026-9601,US,US/Eastern,KOSU,2016-02-19 07:53:00,37.0,29.3,62.0,30.12,10.0,SE,11.5,0.021145833333333332,Clear,False,False,False,False,False,False,False,False,False,False,False,True,False,Day,Day,Day,Day,2016,2,19,7,38,0,2016,2,19,8,8,0
1,40.003746,-83.15389300000002,,,0.01,Hilliard Rome Rd,Hilliard,Franklin,OH,43026-9468,US,US/Eastern,KOSU,2016-02-19 07:53:00,37.0,29.3,62.0,30.12,10.0,SE,11.5,0.021145833333333332,Clear,False,False,True,False,False,False,False,False,False,False,False,True,False,Day,Day,Day,Day,2016,2,19,7,51,29,2016,2,19,8,21,29
2,39.736061,-84.093002,,,0.01,I-675 S,Dayton,Greene,OH,45430,US,US/Eastern,KFFO,2016-02-19 07:58:00,42.8,37.0,60.0,30.08,10.0,SSE,10.4,0.021145833333333332,Mostly Cloudy,False,False,False,False,False,False,False,False,False,False,False,False,False,Day,Day,Day,Day,2016,2,19,7,52,38,2016,2,19,8,22,38
1,41.375961,-83.647453,,,0.0,E Court St,Bowling Green,Wood,OH,43402-2428,US,US/Eastern,KTDZ,2016-02-19 07:53:00,43.0,34.5,53.0,29.98,10.0,South,17.3,0.021145833333333332,Clear,False,False,True,False,False,False,False,False,False,True,False,False,False,Day,Day,Day,Day,2016,2,19,8,5,52,2016,2,19,8,35,52
2,39.953648,-82.960373,,,0.01,East Fwy W,Columbus,Franklin,OH,43205,US,US/Eastern,KCMH,2016-02-19 07:51:00,37.0,28.9,57.0,30.15,10.0,SE,12.7,0.021145833333333332,Overcast,False,False,False,False,False,False,False,False,False,False,False,False,False,Day,Day,Day,Day,2016,2,19,8,18,42,2016,2,19,8,48,42
1,39.767757,-84.231712,,,0.0,Wilson Dr,Dayton,Montgomery,OH,45402-5619,US,US/Eastern,KFFO,2016-02-19 08:58:00,47.7,23.36869565217391,52.0,30.06,10.0,South,17.3,0.021145833333333332,Overcast,False,False,False,False,False,False,False,False,False,False,False,False,False,Day,Day,Day,Day,2016,2,19,8,28,12,2016,2,19,8,58,12
1,39.800312,-84.218811,,,0.0,N Main St,Dayton,Montgomery,OH,45405-5105,US,US/Eastern,KDAY,2016-02-19 08:56:00,48.0,23.36869565217391,52.0,30.03,10.0,South,17.3,0.021145833333333332,Overcast,False,False,False,False,False,False,False,False,False,False,False,False,False,Day,Day,Day,Day,2016,2,19,8,32,47,2016,2,19,9,2,47
1,39.754055,-84.17588,,,0.01,US-35 E,Dayton,Montgomery,OH,45410,US,US/Eastern,KFFO,2016-02-19 08:58:00,47.7,23.36869565217391,52.0,30.06,10.0,South,17.3,0.021145833333333332,Overcast,False,False,False,False,False,False,False,False,False,False,False,False,False,Day,Day,Day,Day,2016,2,19,8,58,38,2016,2,19,9,28,38
1,39.712257,-84.201782,,,0.0,Cardington Rd,Dayton,Montgomery,OH,45409,US,US/Eastern,KFFO,2016-02-19 09:58:00,49.6,23.36869565217391,50.0,30.03,10.0,South,17.3,0.021145833333333332,Overcast,False,False,False,False,False,False,False,False,False,False,False,False,False,Day,Day,Day,Day,2016,2,19,10,24,5,2016,2,19,10,54,5
1,39.759201,-84.149101,,,0.0,Pleasant Ave,Dayton,Montgomery,OH,45403-2728,US,US/Eastern,KFFO,2016-02-19 10:58:00,53.8,23.36869565217391,45.0,29.97,10.0,South,17.3,0.021145833333333332,Mostly Cloudy,False,False,False,False,False,False,False,False,False,False,False,False,False,Day,Day,Day,Day,2016,2,19,11,23,40,2016,2,19,11,53,40
1,39.759472,-84.243698,,,0.0,Walton Ave,Dayton,Montgomery,OH,45417-1525,US,US/Eastern,KDAY,2016-02-19 11:56:00,57.0,23.36869565217391,44.0,29.91,10.0,SSW,17.3,0.021145833333333332,Scattered Clouds,False,False,False,False,False,False,False,False,False,False,False,False,False,Day,Day,Day,Day,2016,2,19,11,45,16,2016,2,19,12,15,16
1,39.797668,-84.217506,,,0.01,N Main St,Dayton,Montgomery,OH,45405-2402,US,US/Eastern,KDAY,2016-02-19 11:56:00,57.0,23.36869565217391,44.0,29.91,10.0,SSW,17.3,0.021145833333333332,Scattered Clouds,False,False,False,False,False,False,False,False,False,False,False,False,False,Day,Day,Day,Day,2016,2,19,11,37,32,2016,2,19,12,7,32
1,39.763664,-84.193298,,,0.01,W Monument Ave,Dayton,Montgomery,OH,45402-1201,US,US/Eastern,KFFO,2016-02-19 11:58:00,59.4,23.36869565217391,37.0,29.93,10.0,SSW,17.3,0.021145833333333332,Clear,True,False,True,False,False,False,False,False,False,False,False,True,False,Day,Day,Day,Day,2016,2,19,11,29,2,2016,2,19,12,14,14
1,39.758121,-84.191414,,,0.01,E 4th St,Dayton,Montgomery,OH,45402,US,US/Eastern,KFFO,2016-02-19 11:58:00,59.4,23.36869565217391,37.0,29.93,10.0,SSW,17.3,0.021145833333333332,Clear,False,False,True,False,False,False,False,False,False,False,False,True,False,Day,Day,Day,Day,2016,2,19,11,38,14,2016,2,19,12,8,14
2,40.266499,-82.927544,,,0.01,I-71 S,Galena,Delaware,OH,43021,US,US/Eastern,KDLZ,2016-02-19 11:36:00,46.4,39.2,57.0,29.95,10.0,South,17.3,0.021145833333333332,Clear,False,False,False,False,False,False,False,False,False,False,False,False,False,Day,Day,Day,Day,2016,2,19,11,27,47,2016,2,19,12,14,5
1,40.099384,-83.155396,,,0.01,Columbus Marysville Rd N,Dublin,Franklin,OH,43017,US,US/Eastern,KOSU,2016-02-19 14:53:00,57.0,23.36869565217391,47.0,29.81,10.0,South,17.3,0.021145833333333332,Overcast,False,False,False,False,False,False,False,False,False,False,False,False,False,Day,Day,Day,Day,2016,2,19,15,12,4,2016,2,19,15,42,4
1,39.981926,-83.046265,,,0.01,W 1st Ave,Columbus,Franklin,OH,43212-3426,US,US/Eastern,KOSU,2016-02-19 14:53:00,57.0,23.36869565217391,47.0,29.81,10.0,South,17.3,0.021145833333333332,Overcast,False,False,False,False,False,False,False,False,False,False,False,False,False,Day,Day,Day,Day,2016,2,19,15,15,38,2016,2,19,15,45,38
1,39.786633,-84.170837,,,0.01,Troy St,Dayton,Montgomery,OH,45404-2726,US,US/Eastern,KFFO,2016-02-19 15:58:00,65.1,23.36869565217391,34.0,29.79,10.0,SSW,17.3,0.021145833333333332,Clear,False,False,True,False,False,False,False,False,False,False,False,True,False,Day,Day,Day,Day,2016,2,19,15,30,32,2016,2,19,16,15,32
1,39.765259,-84.13780200000002,,,0.01,Smithville Rd,Dayton,Montgomery,OH,45403,US,US/Eastern,KFFO,2016-02-19 15:58:00,65.1,23.36869565217391,34.0,29.79,10.0,SSW,17.3,0.021145833333333332,Clear,False,False,False,False,False,False,False,False,False,False,False,True,False,Day,Day,Day,Day,2016,2,19,16,16,51,2016,2,19,17,1,51
2,40.10564,-82.949692,,,1.28,Outerbelt W,Columbus,Franklin,OH,43229,US,US/Eastern,KOSU,2016-02-19 17:53:00,57.0,23.36869565217391,49.0,29.82,10.0,SSW,15.0,0.021145833333333332,Clear,False,False,False,False,False,False,False,False,False,False,False,False,False,Day,Day,Day,Day,2016,2,19,17,41,0,2016,2,19,21,0,0
1,39.762531,-84.1427,,,0.01,S Wright Ave,Dayton,Montgomery,OH,45403-2849,US,US/Eastern,KFFO,2016-02-22 04:58:00,32.0,23.4,94.0,30.14,10.0,North,5.8,0.021145833333333332,Clear,False,False,False,False,False,False,False,False,False,False,False,False,False,Night,Night,Night,Night,2016,2,22,5,20,31,2016,2,22,5,50,31
1,41.428753,-83.61036700000002,,,0.0,Sugar Ridge Rd,Bowling Green,Wood,OH,43402-9687,US,US/Eastern,KTDZ,2016-02-22 05:53:00,32.0,21.7,85.0,30.21,10.0,NNE,5.8,0.021145833333333332,Clear,False,False,False,False,False,False,False,False,False,False,False,False,False,Night,Night,Night,Day,2016,2,22,6,11,53,2016,2,22,6,41,53
1,39.985336,-82.78984100000002,,,0.01,E Broad St,Reynoldsburg,Franklin,OH,43068,US,US/Eastern,KCMH,2016-02-22 06:51:00,32.0,27.5,82.0,30.16,10.0,NE,3.5,0.021145833333333332,Partly Cloudy,False,False,False,False,False,False,False,False,False,False,False,False,False,Night,Day,Day,Day,2016,2,22,6,54,32,2016,2,22,7,24,32
1,39.955517,-82.87687700000002,,,0.01,S Hamilton Rd,Columbus,Franklin,OH,43227-1309,US,US/Eastern,KCMH,2016-02-22 06:51:00,32.0,27.5,82.0,30.16,10.0,NE,3.5,0.021145833333333332,Partly Cloudy,False,False,False,False,False,False,False,False,True,False,False,True,False,Night,Day,Day,Day,2016,2,22,7,9,58,2016,2,22,7,39,58
1,39.858089,-82.827904,,,0.01,Gender Rd,Canal Winchester,Franklin,OH,43110,US,US/Eastern,KLCK,2016-02-22 07:15:00,32.0,26.4,91.0,30.15,10.0,NNE,5.8,0.021145833333333332,Overcast,False,False,False,False,False,False,False,False,False,False,False,False,False,Night,Day,Day,Day,2016,2,22,7,14,44,2016,2,22,7,44,44
1,39.763615,-84.142586,,,0.0,S Wright Ave,Dayton,Montgomery,OH,45403-2857,US,US/Eastern,KFFO,2016-02-22 07:28:00,32.0,23.36869565217391,93.0,30.17,10.0,NE,2.3,0.021145833333333332,Shallow Fog,False,False,False,False,False,False,False,False,False,False,False,False,False,Day,Day,Day,Day,2016,2,22,7,26,2,2016,2,22,7,56,2
2,39.933804,-82.78944399999997,,,0.01,Hill Rd N,Pickerington,Fairfield,OH,43147,US,US/Eastern,KLHQ,2016-02-22 07:53:00,33.1,26.9,85.0,30.17,10.0,NE,6.9,0.021145833333333332,Overcast,False,False,False,False,False,False,False,False,False,False,False,False,False,Day,Day,Day,Day,2016,2,22,7,24,22,2016,2,22,7,54,22
1,40.136345,-83.00573,,,0.01,Lazelle Rd,Columbus,Franklin,OH,43235-4661,US,US/Eastern,KOSU,2016-02-22 07:53:00,32.0,25.2,96.0,30.18,10.0,NNW,3.5,0.021145833333333332,Clear,False,False,False,False,False,False,False,False,False,False,False,False,False,Day,Day,Day,Day,2016,2,22,7,37,59,2016,2,22,8,7,59
1,39.76516,-84.157234,,,0.01,S Findlay St,Dayton,Montgomery,OH,45403-2022,US,US/Eastern,KFFO,2016-02-22 07:58:00,32.0,24.0,97.0,30.18,10.0,NE,3.5,0.021145833333333332,Clear,False,False,False,False,False,False,False,False,False,False,False,True,False,Day,Day,Day,Day,2016,2,22,7,52,6,2016,2,22,8,22,6
1,39.772438,-84.14218100000002,,,0.0,Rangeley Ave,Dayton,Montgomery,OH,45403-1612,US,US/Eastern,KFFO,2016-02-22 07:58:00,32.0,24.0,97.0,30.18,10.0,NE,3.5,0.021145833333333332,Clear,False,False,False,False,False,False,False,False,False,False,False,False,False,Day,Day,Day,Day,2016,2,22,7,51,22,2016,2,22,8,21,22
1,39.981968,-83.008698,,,0.0,W 2nd Ave,Columbus,Franklin,OH,43201-3409,US,US/Eastern,KCMH,2016-02-22 07:51:00,32.0,23.36869565217391,82.0,30.17,10.0,Calm,9.396476547016075,0.021145833333333332,Partly Cloudy,False,False,True,False,False,False,False,False,False,True,False,False,False,Day,Day,Day,Day,2016,2,22,8,4,43,2016,2,22,8,34,43
1,39.232101,-84.16014100000002,,,0.01,Goshen Rd,Goshen,Clermont,OH,45122-9208,US,US/Eastern,KI69,2016-02-22 08:17:00,32.5,28.1,94.0,30.14,10.0,NNE,4.6,0.021145833333333332,Clear,False,False,True,False,False,False,False,False,False,False,False,True,False,Day,Day,Day,Day,2016,2,22,8,13,51,2016,2,22,8,43,51
2,40.061661,-82.99807,,,0.01,Morse Rd,Columbus,Franklin,OH,43229,US,US/Eastern,KOSU,2016-02-22 07:53:00,32.0,25.2,96.0,30.18,10.0,NNW,3.5,0.021145833333333332,Clear,False,False,False,False,False,False,False,False,False,False,False,False,False,Day,Day,Day,Day,2016,2,22,8,19,52,2016,2,22,8,49,52
2,40.082397,-82.906921,,,0.01,New Albany Expy W,Westerville,Franklin,OH,43081,US,US/Eastern,KCMH,2016-02-22 08:51:00,35.1,30.1,76.0,30.17,10.0,NE,5.8,0.021145833333333332,Scattered Clouds,False,False,False,False,False,False,False,False,False,False,False,False,False,Day,Day,Day,Day,2016,2,22,8,41,13,2016,2,22,9,11,13
1,39.317173,-84.220894,,,0.01,Deershadow Rd,Maineville,Warren,OH,45039,US,US/Eastern,KHAO,2016-02-22 08:53:00,36.0,33.3,79.0,30.17,10.0,NE,3.5,0.021145833333333332,Clear,False,False,False,False,False,False,False,False,False,False,False,False,False,Day,Day,Day,Day,2016,2,22,8,54,16,2016,2,22,9,24,16
1,39.690781,-84.205147,,,0.0,Lynpark Ave,Dayton,Montgomery,OH,45439-2729,US,US/Eastern,KMGY,2016-02-22 08:53:00,34.0,26.6,79.0,30.16,10.0,ENE,9.2,0.021145833333333332,Clear,False,False,False,False,False,False,False,False,False,False,False,False,False,Day,Day,Day,Day,2016,2,22,9,6,2,2016,2,22,9,36,2
1,39.803726,-84.18514300000002,,,0.0,Neff Rd,Dayton,Montgomery,OH,45414-5025,US,US/Eastern,KDAY,2016-02-22 08:56:00,33.1,26.9,89.0,30.18,10.0,NE,6.9,0.021145833333333332,Scattered Clouds,False,False,False,False,False,False,False,False,False,False,False,False,False,Day,Day,Day,Day,2016,2,22,9,6,53,2016,2,22,9,36,53
1,39.838779,-84.25831600000002,,,0.01,N Main St,Dayton,Montgomery,OH,45415-2328,US,US/Eastern,KDAY,2016-02-22 09:56:00,36.0,29.6,82.0,30.18,10.0,NE,8.1,0.021145833333333332,Scattered Clouds,False,False,False,False,False,False,False,False,False,False,False,False,False,Day,Day,Day,Day,2016,2,22,9,36,13,2016,2,22,10,21,13
1,39.76144,-84.167038,,,0.0,Huffman Ave,Dayton,Montgomery,OH,45403-1913,US,US/Eastern,KFFO,2016-02-22 09:58:00,37.0,32.4,77.0,30.18,10.0,NE,5.8,0.021145833333333332,Clear,False,False,False,False,False,False,False,False,False,False,False,False,False,Day,Day,Day,Day,2016,2,22,9,37,13,2016,2,22,10,22,13
1,39.740906,-84.182121,,,0.01,E Stewart St,Dayton,Montgomery,OH,45409-2666,US,US/Eastern,KFFO,2016-02-22 09:58:00,37.0,32.4,77.0,30.18,10.0,NE,5.8,0.021145833333333332,Clear,False,False,True,False,False,False,False,False,False,False,False,True,False,Day,Day,Day,Day,2016,2,22,10,3,3,2016,2,22,10,33,3
1,39.81963,-84.198273,,,0.01,N Dixie Dr,Dayton,Montgomery,OH,45414-4012,US,US/Eastern,KDAY,2016-02-22 09:56:00,36.0,29.6,82.0,30.18,10.0,NE,8.1,0.021145833333333332,Scattered Clouds,False,False,False,False,False,False,False,False,False,False,False,True,False,Day,Day,Day,Day,2016,2,22,10,9,1,2016,2,22,10,39,1
1,39.79969000000001,-84.186996,,,0.0,Wagoner Ford Rd,Dayton,Montgomery,OH,45414,US,US/Eastern,KDAY,2016-02-22 10:56:00,41.0,34.3,62.0,30.17,10.0,NE,11.5,0.021145833333333332,Mostly Cloudy,False,False,False,False,False,False,False,False,False,False,False,True,False,Day,Day,Day,Day,2016,2,22,10,27,46,2016,2,22,10,57,46
